     3.03           OBSERVATION DATA    M                   RINEX VERSION / TYPE
GNSSToRINEXV3       Google              20210428 221922 UTC PGM / RUN BY / DATE
Google GnssLogger                                           MARKER NAME
Unknown                                                     MARKER NUMBER
Unknown             Unknown                                 OBSERVER / AGENCY
Unknown             GNSSToRINEXV3       v1.0.0.0            REC # / TYPE / VERS
Unknown             Unknown                                 ANT # / TYPE
        0.0000        0.0000        0.0000                  APPROX POSITION XYZ
        0.0000        0.0000        0.0000                  ANTENNA: DELTA H/E/N
G    8 C1C L1C D1C S1C C5X L5X D5X S5X                      SYS / # / OBS TYPES
R    4 C1C L1C D1C S1C                                      SYS / # / OBS TYPES
E    8 C1C L1C D1C S1C C5X L5X D5X S5X                      SYS / # / OBS TYPES
  2021    04    28    22    19   22.0000000     GPS         TIME OF FIRST OBS
 6 R05  1 R09 -2 R12 -1 R20  2 R21  4 R22 -3                GLONASS SLOT / FRQ #
                                                            END OF HEADER
> 2021 04 28 22 19 22.4299102  0 14                      
G05  23738869.07025    -16670.84725      3433.06825        33.40025                                                                
G06  22542877.93724        -0.00024     -2926.05024        26.40024  22540519.77005      7322.44905     -2184.66505        31.00005
G12  20114308.10125     -1518.80325       308.76425        30.80025                                                                
G19  24329876.32424        -0.00024     -2843.60024        27.60024                                                                
G24  23497085.55324        -0.00024     -3160.55024        25.80024  23494736.37905      7893.12805     -2358.42405        35.10005
G25  21611806.80423         0.00023      2531.45023        21.50023  21609455.532 4     -6364.484 4      1891.791 4        23.800 4
R09                        -0.00023     -4254.10023        19.60023
R21  20516899.99305     -3853.15305      1510.60005        29.90005
E01  25783047.71423         0.00023      2264.15023        22.10023                                                                
E13  23329679.64623        -0.00023      -867.30023        21.50023  23327743.28624        -0.00024      -649.15024        25.50024
E15  26551244.00305     11595.23805     -2569.33505        34.00005  26549335.82404      6401.90004     -1919.14904        27.80004
E21  23451944.603 5       286.851 5       -61.912 5        31.400 5  23450024.43305       142.65305       -45.68305        30.10005
E26  24022539.88924         0.00024      1732.95024        26.50024  24020631.110 4     -4353.568 4      1294.130 4        27.800 4
E27  25453220.84924        -0.00024     -2419.40024        26.80024                                                                
> 2021 04 28 22 19 23.4299102  0 13                      
G05  23738226.47326    -20104.60226      3433.79526        36.90026                                                                
G06  22543420.42024        -0.00024     -2923.55024        26.60024  22541076.04305      9506.56405     -2184.13205        32.20005
G12  20114255.49615     -1828.30315       310.00615        30.40015                                                                
G19  24330418.80725     12354.88725     -2842.97125        29.90025                                                                
G24  23497662.81224        -0.00024     -3155.25024        24.10024  23495338.52106     10250.96106     -2357.76906        36.10006
G25  21611308.10823         0.00023      2532.10023        21.00023                                                                
G29  23835557.99223         0.00023      2477.60023        22.90023                                                                
R21  20516633.33605     -5364.36405      1510.91705        29.90005
E13  23329841.99223        -0.00023      -866.95023        22.00023  23327911.02923        -0.00023      -649.15023        23.20023
E15  26551739.11905     14163.74605     -2568.54905        31.70005  26549823.44504      8320.21804     -1917.71604        28.50004
E21  23451954.35524        -0.00024       -61.90024        27.10024  23450039.28104       187.87204       -45.64704        28.30004
E26  24022209.676 5     -1036.694 5      1733.929 5        31.200 5  24020300.89704     -5648.29004      1294.61404        27.50004
E27  25453695.27924        -0.00024     -2418.75024        27.60024  25451781.40424        -0.00024     -1805.15024        26.80024
> 2021 04 28 22 19 24.4299102  0 14                      
G02  21083148.53923        -0.00023     -1240.85023        22.90023                                                                
G05  23737567.02405    -23538.20805      3436.64505        32.10005                                                                
G06  22543988.32124        -0.00024     -2921.35024        27.70024  22541635.25005     11690.76605     -2182.16605        30.50005
G12  20114193.83305     -2137.67205       311.80905        32.60005                                                                
G19  24330967.82124        -0.00024     -2838.65024        27.70024                                                                
G24  23498287.67324        -0.00024     -3155.35024        26.80024  23495938.80005     12608.62905     -2355.81805        33.00005
G29  23835100.90324         0.00024      2477.30024        25.90024                                                                
R09  22487260.99324        -0.00024     -4250.45024        25.20024
R21  20516357.92024         0.00024      1516.40024        28.40024
E01                         0.00023      2266.95023        19.90023                                                                
E15  26552231.17205     16732.45305     -2566.31905        32.70005  26550314.29905     10238.26305     -1916.19605        29.80005
E21  23451960.745 5        38.042 5       -58.678 5        30.900 5  23450047.46905       233.61805       -43.70205        30.40005
E26  24021883.59624         0.00024      1735.65024        24.60024  24019971.21904     -6942.85204      1296.65004        26.30004
E27  25454144.16224        -0.00024     -2415.30024        26.10024  25452237.18224        -0.00024     -1802.80024        26.50024
> 2021 04 28 22 19 25.4299102  0 15                      
G02  21083384.72025      7869.65625     -1246.24825        35.00025                                                                
G05  23736895.73214    -26974.80614      3432.62514        28.80014                                                                
G06  22544546.179 6     13025.683 6     -2926.140 6        35.700 6  22542188.61105     13873.43805     -2185.02105        32.40005
G12  20114125.12405     -2448.58905       307.48205        29.90005                                                                
G19  24331489.70424        -0.00024     -2844.25024        24.70024                                                                
G24  23498881.206 5     10896.504 5     -3158.527 5        30.700 5  23496538.32805     14964.94805     -2358.49405        32.60005
G29  23834614.28324         0.00024      2474.10024        23.70024                                                                
R09  22488103.95325     10860.09825     -4253.59425        30.90025
R21  20516081.45625     -8387.89725      1509.20025        32.80025
E01  25781762.10123         0.00023      2266.20023        20.40023                                                                
E13  23330156.51223        -0.00023      -871.20023        22.90023                                                                
E15  26552715.88105     19299.23305     -2569.91005        33.10005  26550802.60514     12154.70614     -1919.20214        28.30014
E21  23451970.88224        -0.00024       -61.90024        26.90024  23450058.50604       278.12604       -46.93004        27.50004
E27  25454604.58725      1440.40325     -2420.00825        31.20025  25452690.712 4     11433.946 4     -1807.124 4        26.200 4
E26                                                                  24019640.49214     -8238.98214      1293.24414        27.80014
> 2021 04 28 22 19 26.4299102  0 15                      
G02  21083620.39926      9113.93326     -1241.21026        36.70026                                                                
G05  23736274.00516    -30409.72516      3438.41316        35.90016                                                                
G06  22545090.04505     15949.89005     -2921.19905        33.30005  22542742.67014     16056.90514     -2181.55914        24.40014
G12  20114059.21324         0.00024       311.45024        27.80024                                                                
G24  23499490.12805     14052.90005     -3153.11505        35.30005  23497137.95605     17321.90305     -2354.44705        35.40005
G29  23834133.15924         0.00024      2480.15024        24.40024                                                                
R09  22488851.37805     15112.02805     -4248.21905        32.10005
R20                        -0.00022     -2150.20022        17.10022
R21  20515796.39605     -9899.09605      1514.33505        35.00005
E01  25781324.74624         0.00024      2270.00024        23.90024                                                                
E13  23330326.53724        -0.00024      -865.00024        27.10024  23328410.26424        -0.00024      -645.60024        25.20024
E15  26553196.19124        -0.00024     -2565.05024        25.60024  26551292.50904     14072.09704     -1914.88104        28.80004
E21  23451986.21423        -0.00023       -58.85023        22.90023                                                                
E26  24021222.83924         0.00024      1737.15024        28.40024  24019309.86404     -9534.32404      1297.73804        27.10004
E27  25455066.31005      3859.20805     -2414.53205        33.70005  25453149.43704     13239.20404     -1803.21704        26.60004
> 2021 04 28 22 19 27.4299102  0 14                      
G02  21083857.99825     10357.47225     -1249.18425        34.40025                                                                
G05  23735619.72225    -33845.97825      3430.90225        35.00025                                                                
G06  22545650.52005     18873.20905     -2928.60405        34.00005  22543303.14514     18239.91114     -2187.18714        27.50014
G12  20113994.32124         0.00024       305.80024        26.50024                                                                
G24  23500085.67806     17208.17506     -3160.63606        36.00006  23497739.80205     19678.10205     -2360.08705        35.00005
G29  23833671.94124         0.00024      2473.10024        26.60024                                                                
R09  22489647.49005     19362.50605     -4256.00905        31.80005
R21  20515506.06005    -11410.98505      1506.13205        35.10005
E01  25780906.69923         0.00023      2259.95023        22.30023                                                                
E13  23330481.99324        -0.00024      -873.00024        26.60024  23328573.514 4      5405.073 4      -651.628 4        26.100 4
E15  26553695.50824        -0.00024     -2571.65024        23.50024  26551781.93323        -0.00023     -1921.00023        22.10023
E21  23451998.96824        -0.00024       -66.05024        25.60024                                                                
E26  24020902.225 5     -2704.274 5      1730.016 5        31.400 5  24018979.65614    -10830.13014      1292.00414        25.20014
E27  25455527.25405      6276.20405     -2422.24605        33.40005  25453607.68304     15044.19304     -1809.10904        25.10004
> 2021 04 28 22 19 28.4299102  0 16                      
G02  21084093.44725     11610.34725     -1252.20425        33.20025                                                                
G05  23734968.38426    -37273.25126      3428.13126        36.40026                                                                
G06  22546206.74705     21805.58005     -2931.68705        32.70005  22543859.97204     20429.74104     -2189.38404        28.80004
G12  20113937.77224         0.00024       302.70024        24.80024                                                                
G19                        -0.00023     -2846.40023        19.20023                                                                
G24  23500698.26605     20372.44805     -3163.47005        35.20005  23498339.79905     22041.05405     -2362.38405        34.30005
G29  23833234.65624         0.00024      2469.75024        26.40024                                                                
R09  22490444.45005     23622.25105     -4259.08905        33.00005
R20  20228076.55523        -0.00023     -2160.35023        20.50023
R21  20515224.66705    -12913.31305      1503.04905        34.40005
E01  25780487.10123         0.00023      2259.40023        22.90023                                                                
E13  23330654.485 5       488.419 5      -875.703 5        31.000 5                                                                
E15  26554181.58424        -0.00024     -2574.70024        24.90024                                                                
E21  23452014.070 5        41.229 5       -68.573 5        29.800 5                                                                
E26  24020568.36805     -4430.43105      1726.79205        32.70005  24018650.29604    -12118.94404      1289.21804        25.80004
E27  25455983.95005      8702.34005     -2425.62905        32.80005  25454069.47504     16856.02904     -1811.48504        26.50004
> 2021 04 28 22 19 29.4299102  0 14                      
G02  21084324.92925     12860.12225     -1248.43825        33.20025                                                                
G05  23734316.97726    -40704.00126      3432.19726        35.70026                                                                
G06  22546758.40724        -0.00024     -2928.15024        28.00024  22544417.62805     22617.07605     -2186.50005        29.80005
G12  20113866.46324         0.00024       310.30024        23.90024                                                                
G19  24333660.86024        -0.00024     -2845.45024        27.70024                                                                
G24  23501294.59505     23533.29005     -3159.46005        33.80005  23498941.22506     24401.37206     -2359.32206        36.10006
G29  23832736.14323         0.00023      2473.00023        23.10023                                                                
R09  22491247.63605     27878.69605     -4255.10405        33.10005
R21  20514922.51805    -14418.82205      1506.78205        33.70005
E13  23330818.21405      1361.82105      -871.92605        30.30005  23328904.93824        -0.00024      -650.20024        25.00024
E15  26554669.98824        -0.00024     -2571.10024        27.20024                                                                
E21  23452034.79724        -0.00024       -65.30024        27.70024                                                                
E26  24020240.73605     -6159.70405      1730.66805        32.50005  24018322.36504    -13410.45004      1292.31404        26.10004
E27  25456448.07105     11125.28405     -2421.59905        31.90005  25454533.89604     18665.13804     -1808.25704        28.60004
> 2021 04 28 22 19 30.4299102  0 13                      
G02  21084570.24505     14107.93505     -1246.64705        33.20005                                                                
G05  23733662.91706    -44136.98906      3434.27606        35.70006                                                                
G06  22547316.10724        -0.00024     -2925.85024        27.80024  22544975.62804     24802.48604     -2184.91604        27.60004
G12  20113834.17224         0.00024       305.90024        25.90024                                                                
G19  24334208.66724        -0.00024     -2843.00024        27.70024                                                                
G24  23501892.16805     26691.45405     -3157.41105        32.30005  23499542.09506     26759.73606     -2357.72406        37.10006
R09  22492045.47005     32132.54705     -4253.09605        32.50005
R21  20514655.48905    -15926.71405      1508.54405        33.30005
E13  23330982.58605      2232.50505      -869.86405        30.10005  23329071.70924        -0.00024      -650.05024        26.70024
E15  26555158.73624        -0.00024     -2568.40024        28.10024                                                                
E21  23452042.37824        -0.00024       -62.95024        26.90024                                                                
E26  24019906.85405     -7891.54805      1732.61605        30.50005  24017991.78004    -14703.71304      1293.82304        27.20004
E27  25456901.44315     13545.60215     -2419.41115        30.00015  25454993.56404     20472.48704     -1806.79604        28.80004
> 2021 04 28 22 19 31.4299102  0 15                      
G02  21084818.29624        -0.00024     -1248.45024        28.30024                                                                
G05  23733008.59206    -47570.73306      3433.20806        35.90006                                                                
G06  22547875.942 6     30588.018 6     -2927.255 6        36.100 6                                                                
G12  20113786.62725     -4283.94725       305.14425        30.80025                                                                
G19  24334743.62025     35096.62525     -2843.13725        30.60025                                                                
G24  23502495.77305     29849.52705     -3158.47205        34.60005  23500143.60105     29118.09205     -2358.79305        35.10005
G25                         0.00022      2531.10022        16.20022                                                                
R09  22492835.84624        -0.00024     -4255.40024        27.30024
R21  20514372.60805    -17434.33105      1507.03405        34.30005
E01                         0.00023      2264.95023        19.80023                                                                
E13  23331153.89024        -0.00024      -871.50024        28.30024  23329240.015 4      7995.083 4      -650.583 4        24.400 4
E15  26555648.71924        -0.00024     -2569.45024        29.40024                                                                
E21  23452048.797 6        42.949 6       -64.664 6        35.900 6                                                                
E26  24019574.80715     -9623.89415      1731.30315        30.00015  24017664.52914    -15996.97614      1292.80414        28.60014
E27  25457373.73915     15965.92815     -2421.09215        31.20015  25455452.96904     22279.97804     -1807.81704        29.10004
> 2021 04 28 22 19 32.4299102  0 15                      
G02  21085050.31224     16606.61324     -1252.53924        29.20024                                                                
G05  23732358.61805    -51004.24905      3430.48305        33.20005                                                                
G06  22548437.43006     33514.94306     -2930.08006        37.50006                                                                
G12  20113724.84625     -4589.15925       301.70125        32.70025                                                                
G19  24335286.52025     37939.45425     -2845.82925        31.60025                                                                
G24  23503101.92905     33007.66705     -3161.29305        35.00005  23500743.76205     31476.42705     -2360.56905        33.10005
G25  21606978.48824         0.00024      2532.45024        24.50024                                                                
R09  22493647.660 5     40640.810 5     -4257.260 5        29.900 5
R21  20514100.97205    -18941.48005      1503.76205        34.80005
E13  23331306.46124        -0.00024      -873.90024        26.20024  23329398.58204      8645.30004      -652.90404        24.50004
E15  26556135.558 5      6672.599 5     -2571.977 5        30.300 5  26554227.97923        -0.00023     -1920.45023        22.50023
E21  23452064.06205       107.59705       -67.77505        35.10005                                                                
E26  24019242.31315    -11354.96315      1728.45015        30.00015  24017335.63304    -17290.02204      1290.79204        27.90004
E27  25457833.29715     18385.94115     -2423.65415        30.00015  25455913.42604     24087.57104     -1809.82304        28.00004
E01                                                                  25776828.06123         0.00023      1688.20023        22.00023
> 2021 04 28 22 19 33.4299103  0 16                      
G02  21085306.54324        -0.00024     -1255.20024        27.60024                                                                
G05  23731730.76206    -54431.31906      3426.89806        36.30006                                                                
G06  22549025.53206     36448.63906     -2933.94506        35.80006                                                                
G12  20113704.66925     -4887.35525       297.92925        32.50025                                                                
G19  24335865.62825     40788.83325     -2849.50825        33.10025                                                                
G24  23503729.00405     36172.49505     -3165.01305        32.30005  23501375.33405     33839.76105     -2363.47005        33.90005
G25  21606521.81423         0.00023      2525.90023        22.70023                                                                
R09  22494419.53524        -0.00024     -4262.55024        25.40024
R20                        -0.00022     -2158.25022        17.10022
R21  20513849.35505    -20441.52605      1499.75205        34.30005
E01  25778336.82623         0.00023      2257.60023        20.00023                                                                
E13  23331505.13224        -0.00024      -878.05024        28.20024                                                                
E15  26556659.80405      9248.24805     -2575.68905        31.40005  26554744.13023        -0.00023     -1924.95023        23.00023
E21  23452104.74306       178.93306       -71.54306        37.00006  23450185.47224        -0.00024       -53.45024        25.70024
E26  24018953.82215    -13079.71815      1724.43115        31.10015  24017037.84805    -18577.88605      1287.83405        30.80005
E27  25458325.76515     20813.62815     -2427.46215        31.00015  25456405.29505     25900.15505     -1812.71105        31.00005
> 2021 04 28 22 19 34.4299103  0 15                      
G02  21085541.95524        -0.00024     -1254.30024        26.20024                                                                
G05  23731074.59106    -57858.66806      3426.86806        37.10006                                                                
G06  22549585.01906     39382.13506     -2934.07906        36.10006                                                                
G12  20113649.88225     -5185.42425       297.31325        30.20025                                                                
G19  24336412.52425     43637.77225     -2849.33925        32.40025                                                                
G24  23504338.55705     39336.98105     -3164.95105        31.70005  23501977.99105     36202.86305     -2363.46305        34.50005
G25  21606009.24323         0.00023      2525.75023        21.50023                                                                
R09  22495225.45224        -0.00024     -4264.10024        27.30024
R21  20513551.43605    -21941.54905      1499.34705        33.50005
E01  25777909.09723         0.00023      2257.90023        23.30023                                                                
E13  23331663.79824        -0.00024      -879.10024        27.90024                                                                
E15  26557148.54105     11823.41105     -2575.66505        32.50005                                                                
E21  23452120.10706       250.13506       -71.88806        37.40006  23450199.637 4       717.773 4       -53.768 4        27.200 4
E26  24018626.82305    -14804.49905      1724.28305        31.00005  24016711.14905    -19865.87005      1287.46905        30.30005
E27  25458788.12015     23240.86115     -2427.67015        32.60015  25456867.05005     27712.66905     -1813.01105        31.10005
> 2021 04 28 22 19 35.4299103  0 16                      
G02  21085800.05325     20372.46125     -1256.38025        32.10025                                                                
G05  23730424.91806    -61284.76906      3426.32706        36.80006                                                                
G06  22550146.80705     42317.06405     -2934.65705        35.20005  22547794.33624        -0.00024     -2191.10024        24.60024
G12  20113578.80824         0.00024       295.35024        27.50024                                                                
G19  24336946.73114     46488.02414     -2851.08914        28.40014                                                                
G24  23504940.81705     42502.76405     -3165.58205        33.70005  23502579.05215     38566.98515     -2364.02915        30.80015
G25  21605572.42223         0.00023      2520.30023        22.00023  21603225.64723         0.00023      1885.90023        21.70023
G29  23829925.13523         0.00023      2468.55023        20.10023                                                                
R09  22496057.05324        -0.00024     -4261.95024        27.30024
R21  20513279.50105    -23439.90605      1498.52005        32.30005
E01  25777494.46123         0.00023      2258.05023        21.80023                                                                
E13  23331844.24924        -0.00024      -878.60024        29.40024                                                                
E15  26557642.87524        -0.00024     -2575.90024        29.10024                                                                
E21  23452135.97306       322.94206       -72.72906        36.30006  23450214.00404       772.44804       -54.54404        24.50004
E26  24018295.82915    -16527.75615      1723.46615        30.90015  24016383.45304    -21152.70504      1286.84004        27.60004
E27  25459245.58005     25669.90305     -2428.26605        33.60005  25457328.40705     29526.33305     -1813.64905        30.80005
> 2021 04 28 22 19 36.4299103  0 14                      
G02  21086038.98106     21629.62706     -1257.23906        35.90006                                                                
G05  23729775.26106    -64710.43906      3425.74906        36.60006                                                                
G06  22550710.11105     45252.53805     -2935.60105        34.20005  22548351.04424        -0.00024     -2191.55024        29.00024
G12  20113556.61723         0.00023       291.00023        23.20023                                                                
G24  23505537.09805     45669.05905     -3166.25105        34.10005  23503179.23014     40931.25914     -2364.55514        28.10014
G25  21605113.73324         0.00024      2517.70024        23.70024                                                                
G29  23829445.76024         0.00024      2465.30024        25.00024                                                                
R09  22496846.699 5     57687.711 5     -4262.908 5        32.300 5
R21  20513006.38305    -24937.51505      1497.43605        33.10005
E13  23332005.831 5      3159.772 5      -879.970 5        31.300 5                                                                
E15  26558121.63723        -0.00023     -2576.90023        21.20023                                                                
E21  23452153.05515       396.09715       -73.67215        30.30015  23450230.48604       827.55004       -55.30204        26.00004
E26  24017968.14905    -18250.40905      1722.45005        33.10005  24016051.57604    -22438.93504      1286.12204        25.40004
E27  25459705.75505     28098.97005     -2429.35505        34.70005  25457791.58005     31340.43605     -1814.07105        30.60005
> 2021 04 28 22 19 37.4299103  0 17                      
G02  21086273.34506     22885.67606     -1257.48106        36.40006                                                                
G05  23729121.93906    -68137.58206      3425.93606        37.00006                                                                
G06  22551259.55605     48186.84505     -2935.62805        35.40005  22548908.88324        -0.00024     -2192.05024        29.30024
G12  20113457.61124         0.00024       295.55024        25.10024                                                                
G19                        -0.00023     -2848.65023        19.10023                                                                
G24  23506152.19805     48833.88405     -3166.09605        32.50005  23503785.33605     43294.68305     -2364.24505        30.40005
G25  21604631.29323         0.00023      2524.60023        21.40023                                                                
G29  23829004.69223         0.00023      2470.65023        22.30023                                                                
R09  22497654.56605     61949.34005     -4262.93305        33.10005
R20                        -0.00022     -2160.25022        17.20022
R21  20512725.40405    -26436.12905      1497.09105        33.40005
E01  25776621.98423         0.00023      2255.80023        20.60023                                                                
E13  23332174.54005      4038.46705      -879.83905        30.30005                                                                
E15  26558633.00923        -0.00023     -2575.55023        23.00023  26556706.24323        -0.00023     -1924.35023        22.70023
E21  23452174.86524        -0.00024       -74.15024        28.90024  23450243.00304       881.55204       -55.07904        26.20004
E26  24017641.90105    -19974.36805      1722.63905        33.40005  24015724.12804    -23726.40204      1286.43704        25.90004
E27  25460170.35905     30526.90305     -2429.27705        33.40005  25458254.68505     33153.45405     -1813.92705        31.10005
> 2021 04 28 22 19 38.4299103  0 14                      
G02  21086513.60106     24144.64006     -1259.77206        36.00006                                                                
G05  23728469.11306    -71562.25506      3424.04306        37.20006                                                                
G06  22551819.69005     51123.87405     -2937.80405        35.40005  22549468.418 4     42281.994 4     -2193.645 4        26.000 4
G12  20113429.85324         0.00024       294.60024        24.90024                                                                
G19  24338569.24924        -0.00024     -2854.60024        23.50024                                                                
G24  23506748.30705     52001.21105     -3167.99805        31.90005  23504387.44105     45660.02005     -2365.79005        31.90005
G29  23828503.26123         0.00023      2466.35023        22.60023                                                                
R09  22498447.93924        -0.00024     -4263.25024        23.70024
R21  20512428.43215    -27931.73115      1495.27015        31.00015
E13  23332342.84515      4919.40015      -881.99115        30.00015                                                                
E15  26559120.59424        -0.00024     -2579.75024        24.90024  26557199.22424        -0.00024     -1925.50024        27.80024
E21  23452171.09025       543.80725       -76.17125        30.30025  23450255.41604       937.73804       -56.80104        24.80004
E26  24017309.85305    -21695.52705      1720.52305        32.30005  24015396.57704    -25011.77804      1284.82804        25.30004
E27  25460631.86215     32957.71015     -2431.50715        31.50015  25458717.38705     34968.53605     -1815.66005        30.50005
> 2021 04 28 22 19 39.4299103  0 16                      
G02  21086752.38006     25404.35206     -1259.46506        37.10006                                                                
G05  23727815.11106    -74986.42806      3424.59406        39.20006                                                                
G06  22552382.24605     54061.59505     -2937.34005        35.00005  22550022.28004     44475.84904     -2193.38904        25.40004
G12  20113349.05324         0.00024       293.40024        26.00024                                                                
G19  24339115.01624        -0.00024     -2853.80024        25.90024                                                                
G24  23507342.94005     55169.09805     -3167.39105        32.10005  23504989.57005     48025.61705     -2365.23705        30.00005
G25  21603679.11923         0.00023      2524.25023        20.20023                                                                
G29  23828057.01523         0.00023      2465.05023        22.10023                                                                
R09  22499259.02224        -0.00024     -4264.10024        24.70024
R21  20512161.46115    -29426.94715      1494.89815        30.60015
E01                         0.00023      2254.30023        19.40023                                                                
E13  23332508.77524        -0.00024      -882.25024        26.50024                                                                
E15  26559599.20724        -0.00024     -2577.70024        23.70024  26557688.330 4     39058.653 4     -1924.716 4        28.000 4
E21  23452189.52225        -0.00025       -76.15025        29.70025  23450270.55104       994.56104       -56.45104        28.80004
E26  24016986.52105    -23416.04005      1720.85905        31.30005  24015072.34704    -26296.60604      1285.35504        26.30004
E27  25461099.98224        -0.00024     -2430.95024        24.00024  25459178.61304     36784.09204     -1815.22904        29.20004
> 2021 04 28 22 19 40.4299103  0 13                      
G02  21086988.80706     26665.42006     -1260.89306        37.80006                                                                
G05  23727164.45106    -78409.57906      3423.40706        37.60006                                                                
G06  22552947.54505     57000.37005     -2938.56205        34.80005  22550582.18204     46670.36804     -2194.73104        24.40004
G12  20113303.67524         0.00024       292.90024        27.70024                                                                
G19  24339667.42423        -0.00023     -2848.70023        22.70023                                                                
G24  23507946.31305     58338.01705     -3168.73805        32.30005  23505593.84105     50392.01605     -2366.38905        30.20005
R09  22500058.45924        -0.00024     -4266.40024        28.70024
R21  20511872.35205    -30919.77705      1493.38105        32.60005
E13  23332682.246 5       497.555 5      -883.175 5        29.900 5                                                                
E15  26560091.05724        -0.00024     -2578.35024        24.00024  26558182.87804     40984.70404     -1925.89704        25.70004
E21  23452213.39624        -0.00024       -77.15024        28.10024  23450286.63004      1052.53504       -58.01604        28.70004
E26  24016655.74105    -25135.31505      1719.29805        33.00005  24014745.46304    -27580.39304      1283.67204        26.20004
E27  25461557.956 5      1366.342 5     -2432.440 5        32.300 5  25459641.98205     38600.53205     -1816.46105        29.90005
> 2021 04 28 22 19 41.4299103  0 17                      
G02  21087227.70506     27924.01706     -1263.47006        37.20006                                                                
G05  23726509.96806    -81835.49906      3421.44506        38.30006                                                                
G06  22553503.32305     59936.67105     -2940.76805        34.00005  22551142.45814     48862.71714     -2191.98214        23.60014
G12  20113255.37224     -7244.53524       290.39324        29.10024                                                                
G19  24340225.60124        -0.00024     -2855.20024        26.40024                                                                
G24  23508553.65605     61504.27205     -3170.63305        33.10005  23506198.18605     52756.36105     -2367.39405        32.30005
G25  21602734.62723         0.00023      2517.30023        20.40023                                                                
G29  23827127.51223         0.00023      2461.65023        22.30023                                                                
R09  22500806.70424        -0.00024     -4269.40024        26.00024
R20                        -0.00023     -2167.40023        19.10023
R21  20511608.49815    -32416.07715      1491.07015        31.70015
E01  25774890.20423         0.00023      2255.70023        20.90023                                                                
E13  23332845.89624        -0.00024      -894.00024        26.90024                                                                
E15  26560587.47723        -0.00023     -2579.55023        22.70023  26558669.10514     42908.35514     -1926.48914        29.10014
E21  23452218.45624        -0.00024       -74.70024        26.90024  23450301.28314      1108.10214       -53.10914        26.90014
E26  24016333.12715    -26857.66615      1717.47715        30.10015  24014418.05324         0.00024      1278.50024        25.70024
E27  25462020.49924        -0.00024     -2444.85024        25.00024  25460104.82514     40414.70414     -1812.29314        27.60014
> 2021 04 28 22 19 42.4299103  0 14                      
G02  21087485.53824        -0.00024     -1266.95024        27.70024                                                                
G05  23725869.32305    -85249.48605      3416.43005        33.80005                                                                
G06  22554070.24314     62886.22714     -2956.60714        28.70014  22551706.37925        -0.00025     -2199.90025        29.60025
G12  20113201.12115     -7526.99215       283.52315        32.00015                                                                
G19  24340738.55824        -0.00024     -2860.35024        26.90024                                                                
G24  23509149.05606     64682.58006     -3176.33006        35.60006  23506803.18006     55129.84506     -2371.90406        36.10006
R09  22501640.73924        -0.00024     -4271.55024        28.90024
R21  20511320.40915    -33898.30915      1485.22515        30.60015
E01  25774467.50823         0.00023      2248.00023        21.70023                                                                
E13  23333020.98623        -0.00023      -893.25023        22.60023  23331109.81025        -0.00025      -665.75025        30.10025
E15  26561074.65125      1547.14525     -2585.82725        29.80025  26559159.87714     44841.18714     -1930.92514        28.10014
E21  23452231.059 5        65.584 5       -84.999 5        34.600 5  23450317.48425        -0.00025       -63.20025        34.00025
E26  24016002.46824         0.00024      1714.75024        24.80024  24014089.792 5    -30147.968 5      1278.046 5        30.900 5
E27  25462489.386 5      1373.112 5     -2439.681 5        33.700 5  25460573.71215     42233.36315     -1821.94515        31.30015
> 2021 04 28 22 19 43.4299103  0 15                      
G02  21087712.61725     30459.94125     -1265.94225        32.00025                                                                
G05  23725215.61115    -88671.89715      3420.59215        32.60015                                                                
G06  22554624.69525        -0.00025     -2940.95025        32.10025  22552265.928 5     53251.022 5     -2197.852 5        32.700 5
G12  20113140.39915     -7815.09415       285.71615        30.20015                                                                
G19  24341287.31425     69309.89625     -2855.43225        30.90025                                                                
G24  23509762.56624        -0.00024     -3172.05024        25.40024  23507407.99606     57498.68906     -2369.57806        35.80006
G25  21601770.04223         0.00023      2513.15023        23.00023                                                                
G29  23826201.30023         0.00023      2460.70023        21.00023                                                                
R09  22502432.62625     87535.77725     -4271.13925        31.40025
R21  20511086.10715    -35389.93115      1489.61515        31.40015
E13  23333189.00624        -0.00024      -888.45024        29.10024  23331274.53124        -0.00024      -662.45024        27.70024
E15  26561566.74624        -0.00024     -2581.35024        29.00024  26559650.17314     46767.73214     -1927.80114        28.70014
E21  23452248.88215       144.94515       -81.37015        30.10015  23450330.510 5      1226.329 5       -61.334 5        30.100 5
E26  24015663.83824         0.00024      1711.80024        26.20024  24013764.35314    -31429.99814      1281.31814        28.50014
E27  25462949.70315      3808.09615     -2436.80315        34.50015  25461037.92715     44051.75615     -1819.95815        29.70015
> 2021 04 28 22 19 44.4299103  0 16                      
G02  21087957.90225     31729.69725     -1270.22225        33.20025                                                                
G05  23724569.91315    -92086.00615      3413.96815        31.70015                                                                
G06  22555188.05926     68797.12426     -2948.76126        35.80026  22552824.19615     55450.93715     -2202.66315        31.70015
G12  20113067.60424         0.00024       278.90024        27.10024                                                                
G19  24341824.29715     72170.49015     -2862.66015        30.50015                                                                
G24  23510391.58624        -0.00024     -3179.15024        26.60024  23508012.13324        -0.00024     -2371.25024        27.30024
G25  21601278.13724         0.00024      2510.00024        27.70024  21598912.775 4    -47897.548 4      1873.409 4        26.000 4
G29  23825735.17823         0.00023      2454.25023        22.50023                                                                
R09  22503261.60715     91810.59315     -4275.10215        29.60015
R21  20510774.67724         0.00024      1484.45024        25.30024
E01  25773640.57123         0.00023      2247.50023        22.10023  25771707.20923         0.00023      1675.65023        21.80023
E13  23333357.84324        -0.00024      -893.85024        27.60024  23331443.36924        -0.00024      -666.35024        26.70024
E15  26562058.16125      6717.93425     -2587.00725        31.60025  26560146.08423        -0.00023     -1932.30023        23.10023
E21  23452258.23024        -0.00024       -86.60024        28.20024  23450347.95315      1290.56115       -65.19815        32.40015
E26  24015347.91225      -938.27325      1711.02725        33.20025  24013438.83305    -32707.52405      1277.16005        32.40005
E27  25463411.43815      6249.06215     -2441.27715        34.60015  25461504.75806     45875.11106     -1823.00906        35.80006
> 2021 04 28 22 19 45.4299103  0 12                      
G02  21088201.69825     32996.76825     -1267.50625        33.70025                                                                
G05  23723908.63625    -95504.43425      3418.56725        32.50025                                                                
G06  22555744.23925     71741.72325     -2944.41725        32.60025  22553386.97106     57649.86406     -2198.85006        36.50006
G12  20113007.41124         0.00024       283.40024        25.90024                                                                
G24  23510963.95424        -0.00024     -3172.35024        26.00024  23508615.980 5     62254.061 5     -2369.861 5        32.300 5
R09  22504059.12024        -0.00024     -4270.60024        27.00024
E13  23333540.48224        -0.00024      -887.95024        23.90024  23331612.51724        -0.00024      -663.25024        26.30024
E15  26562558.87923        -0.00023     -2584.90023        21.20023  26560636.010 5     50629.758 5     -1929.202 5        31.800 5
E21  23452280.48024        -0.00024       -83.55024        26.90024  23450364.80615      1353.37015       -62.56915        32.60015
E26  24015019.10415     -2651.65415      1713.75315        30.70015  24013111.52505    -33987.05505      1279.51605        31.50005
E27  25463875.88115      8687.18515     -2437.82415        31.10015  25461960.50724        -0.00024     -1821.05024        23.70024
G25                                                                  21598435.27014    -49774.04914      1876.75714        28.20014
> 2021 04 28 22 19 46.4299103  0 14                      
G02  21088432.58625     34267.53325     -1269.90425        32.20025                                                                
G05  23723252.43825    -98919.97225      3416.40425        35.30025                                                                
G06  22556297.70424        -0.00024     -2946.15024        28.30024  22553947.03106     59851.09806     -2200.67106        35.90006
G12  20112989.17125     -8658.83825       281.36025        32.20025                                                                
G19  24342941.43624        -0.00024     -2857.30024        27.00024                                                                
G24  23511590.56924        -0.00024     -3174.95024        26.80024  23509220.40906     64626.47006     -2372.03006        36.30006
R09  22504843.125 5    100356.600 5     -4274.412 5        35.300 5
R21  20510236.06323         0.00023      1484.40023        23.10023
E01  25772805.46223         0.00023      2246.15023        20.30023                                                                
E13  23333705.71623        -0.00023      -889.65023        22.80023  23331782.847 4     17832.405 4      -665.792 4        24.500 4
E15  26563037.99625      1560.49625     -2585.23525        31.40025  26561128.01814     52561.48514     -1930.97914        29.20014
E21  23452291.02124        -0.00024       -84.15024        29.20024  23450381.34305      1418.49205       -64.56605        33.00005
E26  24014697.17505     -4361.80005      1710.98905        34.70005  24012785.09905    -35263.96005      1277.24005        30.10005
E27  25464345.10515     11128.23615     -2440.10315        33.20015  25462429.731 4     49511.240 4     -1822.781 4        28.800 4
> 2021 04 28 22 19 47.4299103  0 16                      
G02  21088666.88424        -0.00024     -1266.00024        23.80024                                                                
G05  23722611.04226   -102338.53726      3418.67026        38.70026                                                                
G06  22556889.65524        -0.00024     -2945.25024        28.70024  22554508.70306     62050.10506     -2198.97006        38.10006
G12  20112933.57025     -8942.33425       283.29225        35.00025                                                                
G19  24343485.12024        -0.00024     -2859.25024        27.00024                                                                
G24  23512169.32825     80558.40525     -3173.81925        33.00025  23509824.35205     66996.65105     -2370.00405        34.60005
G25  21599841.80523         0.00023      2513.20023        21.20023                                                                
R09  22505649.42706    104628.84506     -4272.28506        36.50006
R20                        -0.00022     -2170.85022        17.10022
R21  20509928.93624         0.00024      1489.65024        27.60024
E01  25772439.27623         0.00023      2247.75023        22.00023                                                                
E13  23333866.26525       531.35725      -889.23225        29.80025  23331956.88705     18496.40005      -664.01405        30.50005
E15  26563537.61024        -0.00024     -2582.75024        26.70024                                                                
E21  23452309.169 6       203.610 6       -84.318 6        36.500 6  23450396.49305      1481.57305       -62.91305        33.60005
E26  24014374.45906     -6075.11306      1713.14406        37.70006  24012460.28405    -36543.19505      1279.41405        30.40005
E27  25464811.74215     13566.44915     -2438.13615        32.70015  25462894.86904     51332.06204     -1820.61304        29.30004
> 2021 04 28 22 19 48.4299103  0 14                      
G02  21088904.16924        -0.00024     -1273.75024        24.80024                                                                
G05  23721964.24006   -105756.17906      3416.81206        38.30006                                                                
G06  22557436.325 5     80602.605 5     -2946.809 5        30.300 5  22555069.16406     64249.93306     -2200.49906        37.00006
G12  20112875.85906     -9224.34406       280.94306        35.60006                                                                
G19  24344009.00724        -0.00024     -2855.50024        25.20024                                                                
G24  23512787.05005     83733.19005     -3175.67505        33.20005  23510428.88206     69367.41206     -2371.38306        35.70006
R09  22506443.72706    108902.23506     -4274.32406        36.50006
R21  20509654.17624         0.00024      1482.70024        28.60024
E01  25771987.33823         0.00023      2244.40023        22.00023                                                                
E13  23334038.79515      1422.32215      -891.36415        31.00015  23332124.92005     19161.41205      -665.71805        29.50005
E15  26564031.81724        -0.00024     -2585.50024        29.10024                                                                
E21  23452325.50706       288.91406       -86.61306        36.50006  23450413.43005      1545.49005       -64.63305        34.20005
E26  24014049.33306     -7787.11306      1711.08706        38.00006  24012133.65905    -37821.62805      1277.83005        30.10005
E27  25465273.27205     16005.74205     -2440.31705        34.30005  25463361.19605     53153.67705     -1822.27405        30.20005
> 2021 04 28 22 19 49.4299103  0 15                      
G02  21089140.95823        -0.00023     -1272.80023        22.50023                                                                
G05  23721312.14406   -109171.11206      3412.71406        37.40006                                                                
G06  22558004.38505     83551.27905     -2950.93805        30.30005  22555630.32906     66451.88006     -2203.58106        37.70006
G12  20112817.95205     -9503.22805       276.41905        35.10005                                                                
G19  24344592.35624        -0.00024     -2864.50024        24.30024                                                                
G24  23513387.78705     86910.72305     -3179.61005        32.60005  23511033.21706     71740.22406     -2374.40206        35.50006
G25  21598935.33523         0.00023      2501.90023        20.20023                                                                
R09  22507236.03106    113178.53106     -4278.59706        36.10006
R21  20509387.91325    -44298.85525      1478.93125        29.70025
E01  25771540.60023         0.00023      2242.15023        22.80023                                                                
E13  23334210.22905      2315.72705      -895.47805        32.00005  23332295.75405     19828.54205      -668.78505        31.50005
E15  26564519.532 5      4147.117 5     -2588.910 5        30.100 5  26562607.75624        -0.00024     -1933.60024        23.50024
E21  23452341.04906       377.53606       -91.00006        37.20006  23450430.47105      1611.65505       -67.82705        34.80005
E26  24013725.81006     -9496.26406      1706.93406        38.00006  24011808.63705    -39097.93205      1274.68005        30.70005
E27  25465743.29905     18447.99505     -2444.35205        32.70005  25463823.72805     54977.42405     -1825.46505        30.30005
> 2021 04 28 22 19 50.4299103  0 15                      
G02  21089387.66524        -0.00024     -1276.30024        25.50024                                                                
G05  23720668.76705   -112581.40405      3409.85905        35.40005                                                                
G06  22558555.98105     86504.93705     -2954.20705        31.00005  22556192.41706     68657.47506     -2206.15906        37.50006
G12  20112771.16306     -9776.95406       273.15106        35.80006                                                                
G19  24345126.26423        -0.00023     -2868.20023        21.70023                                                                
G24  23513987.64905     90092.92305     -3182.72905        31.40005  23511639.37505     74116.58305     -2376.75705        34.80005
G25  21598407.37823         0.00023      2493.70023        22.60023                                                                
R09  22508049.94606    117459.82206     -4281.84506        37.50006
R21  20509106.08605    -45774.93405      1475.61205        31.40005
E01  25771082.19523         0.00023      2237.45023        23.20023                                                                
E13  23334372.99424        -0.00024      -898.75024        29.20024  23332464.81505     20499.42105      -671.43505        32.30005
E15  26565013.26815      6738.15715     -2593.13015        30.00015  26563096.99523        -0.00023     -1935.40023        23.30023
E21  23452361.11316       471.15016       -94.22816        36.60016  23450448.73705      1681.58805       -70.55305        33.50005
E26  24013400.81306    -11200.44106      1703.48006        38.20006  24011483.94005    -40370.50305      1272.07405        30.40005
E27  25466207.05605     20895.07905     -2447.83105        33.60005  25464291.08305     56804.91405     -1828.11605        29.80005
> 2021 04 28 22 19 51.4299103  0 14                      
G02  21089649.83824        -0.00024     -1273.20024        28.10024                                                                
G05  23720020.47105   -115994.17305      3416.71405        35.00005                                                                
G06  22559132.63705     89456.34805     -2947.45505        30.70005  22556754.68306     70861.42406     -2201.05606        37.40006
G12  20112714.65705    -10052.73005       279.62705        35.40005                                                                
G19  24345690.92824        -0.00024     -2855.90024        26.10024                                                                
G24  23514593.68505     93272.73705     -3175.82805        31.80005  23512243.31205     76491.17105     -2371.64205        34.20005
G25  21597950.05024         0.00024      2510.25024        24.50024                                                                
R09  22508844.85006    121738.76006     -4275.02506        38.40006
R21  20508821.43805    -47253.29805      1482.34105        31.50005
E13  23334546.12924        -0.00024      -892.35024        28.00024  23332636.15105     21168.54005      -666.22805        31.40005
E15  26565511.07924        -0.00024     -2585.60024        28.90024  26563588.210 4     62223.542 4     -1930.460 4        25.400 4
E21  23452377.75606       562.71606       -87.68406        36.50006  23450465.38005      1749.96905       -65.51405        32.90005
E26  24013078.09106    -12906.77706      1710.24106        36.60006  24011159.41904    -41644.81904      1277.23604        29.10004
E27  25466667.09205     23339.98605     -2440.85805        34.60005  25464755.91604     58630.60404     -1822.66404        29.00004
> 2021 04 28 22 19 52.4299103  0 16                      
G02  21089870.99124        -0.00024     -1270.90024        27.90024                                                                
G05  23719377.32106   -119411.21106      3415.75006        35.60006                                                                
G06  22559668.27105     92403.50105     -2948.56605        30.00005  22557315.80006     73062.23306     -2202.02906        38.20006
G12  20112663.29805    -10332.31605       278.05305        34.70005                                                                
G19  24346228.66124        -0.00024     -2859.45024        25.70024                                                                
G24  23515203.06805     96448.35505     -3177.02005        34.20005  23512848.19905     78862.47705     -2372.42505        34.60005
G25  21597504.76324         0.00024      2507.10024        24.40024                                                                
R09  22509656.59406    126013.50106     -4276.22606        38.60006
R20                        -0.00023     -2178.50023        17.50023
R21  20508559.92415    -48735.66315      1480.74015        30.80015
E01  25770260.52524         0.00024      2243.30024        23.50024  25768298.38323         0.00023      1674.95023        22.50023
E13  23334715.71724        -0.00024      -893.25024        28.10024  23332807.53805     21834.63305      -667.30105        30.80005
E15  26565998.74625     11911.77625     -2586.04825        30.70025  26564082.77304     64153.85004     -1931.51404        25.80004
E21  23452393.25106       650.19006       -89.08806        36.00006  23450481.77405      1815.29805       -66.49305        34.00005
E26  24012753.02206    -14617.40906      1709.01606        36.40006  24010833.15105    -42922.17305      1276.09905        30.00005
E27  25467132.57606     25780.56106     -2442.24906        36.50006  25465213.00514     60453.20914     -1824.01514        28.70014
> 2021 04 28 22 19 53.4299103  0 15                      
G02  21090125.42824     43162.33524     -1271.63224        29.30024                                                                
G05  23718729.38305   -122828.35705      3417.18005        35.40005                                                                
G06  22560244.68505     95350.81705     -2947.44405        30.40005  22557876.02506     75263.17906     -2200.97706        38.00006
G12  20112613.44505    -10611.51205       279.02405        35.30005                                                                
G19  24346751.41224        -0.00024     -2854.40024        25.80024                                                                
G24  23515799.56805     99623.88505     -3175.55005        32.90005  23513452.49305     81233.84305     -2371.31205        34.40005
G25  21596962.65224         0.00024      2508.45024        23.90024                                                                
R09  22510454.85406    130288.38706     -4274.87506        38.80006
R21  20508284.02805    -50217.64105      1481.78205        31.30005
E01  25769778.07224         0.00024      2244.90024        24.40024                                                                
E13  23334891.60824        -0.00024      -891.15024        26.20024  23332978.03305     22500.84805      -666.16005        31.10005
E15  26566491.51815     14496.42215     -2584.57815        30.00015  26564568.35023        -0.00023     -1931.05023        22.60023
E21  23452412.65006       738.02906       -87.90906        37.60006  23450499.07505      1880.88905       -65.74105        33.50005
E26  24012430.35806    -16327.71506      1710.37306        37.50006  24010509.28805    -44199.39505      1277.12005        30.30005
E27  25467595.36806     28221.45606     -2440.83006        35.90006  25465681.19305     62275.73105     -1822.68305        29.80005
> 2021 04 28 22 19 54.4299103  0 16                      
G02  21090376.84324        -0.00024     -1276.30024        27.60024                                                                
G05  23718073.32605   -126242.50805      3410.97805        35.40005                                                                
G06  22560793.79405     98301.39105     -2953.87905        31.60005  22558438.02506     77466.46706     -2205.78706        37.30006
G12  20112559.97105    -10887.23205       272.48905        34.30005                                                                
G19  24347293.02624        -0.00024     -2861.10024        25.30024                                                                
G24  23516405.03805    102802.42505     -3181.81205        31.60005  23514056.76405     83607.47305     -2376.16605        33.80005
G25  21596487.66924         0.00024      2501.00024        23.70024                                                                
R09  22511249.49306    134566.46606     -4281.36406        38.60006
R20  20238614.90523        -0.00023     -2182.05023        20.60023
R21  20507989.52115    -51696.11715      1475.13615        29.80015
E01  25769359.15124         0.00024      2239.25024        26.00024                                                                
E13  23335049.78824        -0.00024      -899.25024        28.30024  23333146.40605     23169.50705      -671.32605        31.70005
E15  26566984.56624        -0.00024     -2590.50024        27.30024  26565062.29723        -0.00023     -1935.85023        23.30023
E21  23452429.92706       829.19506       -94.53606        36.50006  23450515.45305      1949.01005       -70.62005        33.00005
E26  24012101.67506    -18034.96406      1703.92606        37.20006  24010182.70314    -45474.24514      1272.25614        29.20014
E27  25468060.53506     30665.36606     -2447.25606        35.60006  25466147.56005     64100.87505     -1827.78105        29.70005
> 2021 04 28 22 19 55.4299103  0 16                      
G02  21090660.88824        -0.00024     -1277.80024        26.80024                                                                
G05  23717415.72406   -129654.00606      3412.10406        36.00006                                                                
G06  22561362.34305    101254.72105     -2952.78405        30.80005  22559000.27806     79671.88406     -2205.01906        36.60006
G12  20112506.75005    -11159.95305       273.08205        33.20005                                                                
G19  24347834.59424        -0.00024     -2861.50024        26.30024                                                                
G24  23517010.76105    105983.65905     -3180.62305        31.10005  23514661.28805     85983.06605     -2375.16405        34.10005
G25  21596011.14123         0.00023      2502.90023        23.30023                                                                
R09  22512062.97206    138847.37406     -4280.43006        38.40006
R20  20238984.99123        -0.00023     -2183.95023        22.90023
R21  20507706.05924         0.00024      1476.15024        27.90024
E01  25768925.79324         0.00024      2239.55024        25.80024  25767012.81723         0.00023      1672.85023        23.20023
E13  23335225.60824        -0.00024      -897.50024        28.20024  23333316.83005     23840.21605      -670.35105        31.30005
E15  26567476.66824        -0.00024     -2589.65024        26.60024  26565557.396 4     69949.184 4     -1933.403 4        24.800 4
E21  23452448.65705       923.29805       -93.57705        35.40005  23450533.88205      2019.26405       -69.89205        33.70005
E26  24011776.84206    -19739.21306      1704.86606        36.90006  24009859.96905    -46746.91005      1273.09405        30.30005
E27  25468532.85005     33112.16605     -2446.13905        34.70005  25466609.98205     65927.99105     -1826.73205        31.50005
> 2021 04 28 22 19 56.4299102  0 16                      
G02  21090852.10824        -0.00024     -1274.30024        27.50024                                                                
G05  23716734.54806   -133067.12006      3416.26406        36.40006                                                                
G06  22561876.73905    104206.63405     -2948.88305        31.00005  22559531.16306     81876.27006     -2202.16606        37.10006
G12  20112426.95805    -11433.73805       276.77605        34.20005                                                                
G19  24348347.49124        -0.00024     -2857.95024        26.20024                                                                
G24  23517587.51405    109163.45405     -3176.60405        31.20005  23515235.94205     88357.49705     -2372.12605        32.40005
G25  21595468.17023         0.00023      2507.15023        22.30023                                                                
G29  23820086.19923         0.00023      2454.85023        20.30023                                                                
R09  22512834.29006    143126.91606     -4276.58806        39.40006
R21  20507413.71424         0.00024      1478.65024        27.30024
E01  25768460.76724         0.00024      2244.45024        24.20024                                                                
E13  23335365.26424        -0.00024      -894.25024        28.10024  23333457.98405     24509.96905      -667.53605        31.40005
E15  26567935.90224        -0.00024     -2586.80024        25.70024  26566019.62924        -0.00024     -1931.05024        23.60024
E21  23452436.91706      1016.19806       -89.87206        35.70006  23450521.54305      2088.55605       -67.12105        33.90005
E26  24011423.33906    -21444.81406      1708.65206        37.30006  24009504.96705    -48020.63705      1275.89805        30.30005
E27  25468971.09905     35557.61805     -2442.38305        33.80005  25467047.33105     67754.09805     -1823.75705        31.70005
> 2021 04 28 22 19 57.4299102  0 16                      
G02  21091097.84624     48262.08524     -1272.23124        28.50024                                                                
G05  23716082.70706   -136485.98806      3417.97606        38.60006                                                                
G06  22562424.06804    107152.72604     -2947.38704        28.70004  22560091.38306     84076.44406     -2200.89906        38.10006
G12  20112366.30806    -11712.78906       277.89206        36.10006                                                                
G19  24348889.12425    109347.24225     -2857.22525        30.30025                                                                
G24  23518191.80414    112337.30714     -3174.95314        28.40014  23515841.13106     90727.60306     -2370.90506        36.80006
G25  21595001.90124         0.00024      2506.10024        24.20024                                                                
G29  23819650.50824         0.00024      2457.35024        25.40024                                                                
R09  22513626.25006    147400.77006     -4274.85806        40.00006
R21  20507144.10924         0.00024      1480.10024        24.90024
E01  25768040.96623         0.00023      2246.15023        22.70023                                                                
E13  23335533.65624        -0.00024      -892.25024        27.30024  23333625.77605     25175.53105      -666.32705        32.10005
E15  26568425.67124        -0.00024     -2583.55024        25.00024  26566513.895 4     73810.397 4     -1929.309 4        26.100 4
E21  23452451.21506      1103.58306       -88.48906        36.00006  23450538.24005      2153.81805       -66.00605        33.40005
E26  24011092.87606    -23156.17706      1710.22106        36.30006  24009180.50005    -49298.48405      1277.04505        31.30005
E27  25469432.68805     37997.30505     -2440.64305        33.50005  25467510.41905     69575.95005     -1822.65705        30.80005
> 2021 04 28 22 19 58.4299103  0 16                      
G02  21091365.50825     49538.32625     -1279.65125        32.50025                                                                
G05  23715462.68406   -139900.06706      3411.06806        38.60006                                                                
G06  22563018.80414    110104.09414     -2954.38414        29.20014  22560682.52106     86280.28606     -2206.38006        38.00006
G12  20112352.46505    -11986.70005       270.57705        33.10005                                                                
G19  24349458.67715    112208.04015     -2863.82015        30.90015                                                                
G24  23518835.40614    115515.56814     -3181.23614        28.90014  23516476.03906     93101.30506     -2376.18506        35.50006
G25  21594556.95624         0.00024      2498.65024        23.80024                                                                
G29  23819208.26224         0.00024      2451.80024        27.10024                                                                
R09  22514459.92106    151679.56906     -4281.93306        38.70006
R21  20506871.54524         0.00024      1475.35024        26.30024
E01  25767636.79324         0.00024      2238.30024        25.40024                                                                
E13  23335731.16624        -0.00024      -897.30024        24.10024  23333828.38404     25844.78604      -671.85404        29.00004
E15  26568951.75424        -0.00024     -2590.20024        28.50024  26567034.58204     75742.59604     -1934.76104        28.10004
E21  23452498.53006      1196.03506       -95.87506        36.50006  23450585.85405      2222.84505       -71.60005        33.70005
E26  24010800.52606    -24862.43706      1702.90406        36.50006  24008884.25205    -50572.69205      1271.71805        31.00005
E27  25469928.49205     40441.94505     -2447.88205        34.60005  25468006.22304     71401.53504     -1828.05204        29.30004
> 2021 04 28 22 19 59.4299103  0 16                      
G02  21091590.74214     50818.14014     -1280.15214        29.40014                                                                
G05  23714811.92416   -143311.80416      3413.44316        37.10016                                                                
G06  22563601.39025    113058.62425     -2953.74525        31.90025  22561243.22306     88486.55006     -2205.64606        37.20006
G12  20112306.38605    -12257.12405       270.78005        32.40005                                                                
G19  24349989.69915    115072.11715     -2863.60415        30.60015                                                                
G24  23519422.78915    118697.14515     -3181.08715        30.30015  23517081.70905     95477.27405     -2375.24805        35.30005
G25  21594144.53124         0.00024      2500.60024        26.80024  21591760.28224         0.00024      1867.80024        24.20024
G29  23818728.08424         0.00024      2449.65024        26.30024                                                                
R09  22515271.24816    155960.51116     -4280.45816        36.10016
R21  20506601.52125    -59081.67625      1473.85325        31.90025
E01  25767214.47524         0.00024      2238.00024        23.70024                                                                
E13  23335914.12924        -0.00024      -899.75024        28.60024  23333999.65405     26516.35505      -671.16605        30.90005
E15  26569444.70225      4151.65825     -2589.12425        32.80025  26567526.33104     77676.80404     -1933.45104        28.70004
E21  23452518.10606      1291.73406       -95.20506        35.80006  23450603.63105      2294.41905       -71.12405        34.80005
E26  24010478.33815    -26565.73915      1704.12715        33.40015  24008561.16505    -51844.42005      1271.99405        29.80005
E27  25470394.15915     42889.72015     -2448.58515        34.40015  25468472.78914     73228.99714     -1825.95814        29.30014
> 2021 04 28 22 20 00.4299101  0 16                      
G02  21091805.69925     52098.78225     -1281.69325        30.70025                                                                
G05  23714129.90116   -146725.18816      3411.04116        38.40016                                                                
G06  22564133.52715    116012.03115     -2953.85215        32.20015  22561774.46105     90692.05705     -2205.95905        35.30005
G12  20112206.56105    -12526.91005       268.07705        33.10005                                                                
G19  24350521.83724        -0.00024     -2864.55024        27.50024                                                                
G24  23520007.09015    121877.52515     -3182.22615        31.00015  23517656.11705     97852.74805     -2376.62205        34.00005
G25  21593619.30024         0.00024      2500.85024        25.30024  21591254.83724         0.00024      1866.70024        28.20024
G29  23818231.03424         0.00024      2453.00024        26.30024                                                                
R09  22516033.02715    160240.50315     -4280.69315        35.10015
R21  20506314.92606    -60553.75706      1469.77006        36.60006
E01  25766776.78424         0.00024      2236.10024        25.50024  25764852.71624         0.00024      1670.10024        25.30024
E13  23336056.83625      1442.73925      -901.53625        30.50025  23334138.46406     27188.07006      -672.16706        35.80006
E15  26569903.09125        -0.00025     -2589.85025        29.70025  26567991.01505     79609.97605     -1933.92105        29.60005
E21  23452505.82015      1386.97615       -96.93515        34.60015  23450592.84406      2365.85006       -72.42906        36.30006
E26  24010119.79215    -28287.50415      1701.29315        32.20015  24008210.11415    -53117.47715      1271.86415        30.80015
E27  25470829.76316     45339.52116     -2450.37116        36.00016  25468907.79405     75054.99505     -1826.45505        31.10005
> 2021 04 28 22 20 01.4299102  0 16                      
G02  21092057.91914     53377.79214     -1276.27814        28.70014                                                                
G05  23713485.44216   -150138.44516      3417.50816        37.00016                                                                
G06  22564699.03015    118963.11815     -2947.96215        32.00015  22562336.36606     92895.89406     -2201.38806        39.60006
G12  20112155.69115    -12797.48015       273.36215        35.40015                                                                
G19  24351068.45324        -0.00024     -2861.45024        28.00024                                                                
G24  23520624.45724        -0.00024     -3180.90024        26.80024  23518264.49106    100228.06106     -2373.69606        37.20006
G25  21593135.23024   -106697.11824      2500.65324        28.70024  21590779.161 4    -79715.332 4      1870.997 4        25.800 4
G29  23817773.64524         0.00024      2457.25024        25.20024                                                                
R09  22516843.16016    164519.48416     -4276.01616        35.50016
R21  20506044.90706    -62024.63806      1473.19106        38.90006
E01  25766333.48524         0.00024      2239.30024        28.10024  25764424.407 4    -71223.477 4      1673.753 4        24.200 4
E13  23336225.11415      2342.60315      -895.91015        32.10015  23334309.14006     27858.42406      -668.30706        39.90006
E15  26570396.94325        -0.00025     -2584.10025        29.50025  26568482.76915     81541.59015     -1928.88315        31.40015
E21  23452523.30206      1482.74306       -92.65006        36.90006  23450610.32706      2436.97306       -69.05606        38.80006
E26  24009794.61216    -29955.38516      1704.19516        37.40016  24007883.43505    -54388.59405      1272.88205        34.70005
E27  25471297.23415     47789.41615     -2447.41015        32.50015  25469372.26705     76879.48205     -1822.02405        34.40005
> 2021 04 28 22 20 02.4299102  0 15                      
G02  21092294.86325     54655.45525     -1281.45425        34.80025                                                                
G05  23712835.60115   -153551.79815      3408.23415        33.80015                                                                
G06  22565254.65415    121913.03815     -2956.26415        31.50015  22562898.88507     95098.74107     -2206.66007        44.70007
G12  20112107.83326    -13068.90226       266.78726        37.90026                                                                
G19  24351594.69724    123660.33324     -2861.73624        29.10024                                                                
G24  23521222.35225    128239.43725     -3183.08725        31.60025  23518867.78206    102602.67206     -2377.24906        39.00006
G25  21592669.16114   -109198.02814      2497.27414        29.10014  21590301.10123         0.00023      1863.60023        23.00023
R09  22517645.51315    168801.41315     -4284.89415        32.60015
R21  20505768.90716    -63495.32516      1465.96616        35.50016
E01  25765915.08324         0.00024      2230.60024        28.80024                                                                
E13  23336394.30516      3240.33116      -901.78516        38.00016  23334480.43006     28528.20706      -673.31306        39.00006
E15  26570885.114 5     11929.675 5     -2589.606 5        33.400 5  26568973.33806     83471.59806     -1933.79806        36.70006
E21  23452541.09905      1577.20905       -99.20505        35.20005  23450628.42306      2507.52106       -73.95006        38.80006
E26  24009471.24415    -31658.98615      1699.83615        29.80015  24007560.96606    -55659.90506      1268.12406        36.00006
E27  25471753.92715     50234.61915     -2445.20015        31.40015  25469837.35405     78702.61405     -1825.69205        31.30005
> 2021 04 28 22 20 03.4299102  0 16                      
G02  21092535.92126     55939.81926     -1284.42726        40.00026                                                                
G05  23712187.17415   -156957.72115      3406.00015        33.60015                                                                
G06  22565812.89326    124872.51526     -2958.81326        36.30026  22563461.92007     97307.81007     -2209.33807        44.10007
G12  20112059.29126    -13332.97626       264.43326        40.00026                                                                
G19  24352142.44324        -0.00024     -2867.55024        27.60024                                                                
G24  23521819.26326    131424.38026     -3184.51326        36.70026  23519473.98706    104981.30406     -2378.12606        38.40006
G25  21592175.42815   -111690.60815      2493.03615        34.40015  21589825.655 3    -83449.110 3      1861.889 3        23.400 3
G29  23816821.03824         0.00024      2444.55024        24.90024                                                                
R09  22518421.70115    173084.59315     -4284.45015        30.30015
R21  20505503.31515    -64959.65115      1465.63215        32.20015
E01  25765487.30424         0.00024      2230.55024        28.20024                                                                
E13  23336565.21206      4145.33106      -904.56106        37.50006  23334651.63706     29203.56606      -675.37006        39.60006
E15  26571377.69806     14522.55506     -2593.22806        38.60006  26569467.12105     85407.88505     -1936.50605        33.80005
E21  23452560.61006      1678.65206      -101.17306        36.40006  23450647.33506      2583.18406       -75.49806        38.80006
E26  24009147.19315    -33355.62215      1697.26615        34.00015  24007237.51514    -56926.82914      1266.99814        29.20014
E27  25472218.33015     52682.37715     -2451.34115        32.50015  25470305.35505     80530.00605     -1827.71505        30.70005
> 2021 04 28 22 20 04.4299102  0 16                      
G02  21092781.83826     57223.47926     -1283.52726        38.30026                                                                
G05  23711540.60915   -160367.61615      3411.46015        30.40015                                                                
G06  22566381.38615    127831.63815     -2959.04415        32.50015  22564024.71806     99516.76606     -2208.96106        38.40006
G12  20112006.31526    -13598.26126       265.59326        38.50026                                                                
G19  24352698.94425    129393.33525     -2864.94925        30.60025                                                                
G24  23522428.82825    134607.69625     -3183.50325        33.20025  23520081.75305    107358.46405     -2376.93305        33.20005
G25  21591708.73825   -114185.63625      2496.13425        34.80025  21589364.96123         0.00023      1865.50023        21.90023
G29  23816356.14723         0.00023      2447.70023        22.30023                                                                
R09  22519247.11715    177368.07715     -4282.81015        33.10015
R21  20505208.40705    -66426.82505      1468.08805        33.90005
E01  25765084.47024         0.00024      2234.10024        24.50024                                                                
E13  23336730.48524        -0.00024      -903.20024        28.20024  23334822.90506     29878.18606      -674.27106        37.30006
E15  26571871.84306     17115.30806     -2592.55106        40.80006  26569960.96624        -0.00024     -1936.15024        27.50024
E21  23452581.38316      1778.28916      -100.03216        37.40016  23450665.40905      2657.96105       -74.38005        35.00005
E26  24008825.00315    -35053.70415      1699.40115        33.30015  24006915.92504    -58194.61904      1269.37804        28.90004
E27  25472687.89215     55134.27115     -2450.28315        30.90015  25470770.42004     82357.73704     -1828.28604        28.50004
> 2021 04 28 22 20 05.4299102  0 16                      
G02  21093021.45526     58504.54526     -1278.44226        38.50026                                                                
G06  22566950.77525    130786.88725     -2952.50625        33.60025  22564584.81206    101723.60406     -2204.74506        36.90006
G12  20111959.63026    -13866.54526       270.87426        39.90026                                                                
G19  24353237.75425    132255.56225     -2859.87725        30.20025                                                                
G24  23523049.18125    137788.71225     -3178.61525        32.70025  23520687.71605    109733.74605     -2373.65905        30.40005
G25  21591225.55524   -116685.49224      2503.13124        29.30024                                                                
G29  23815881.65824         0.00024      2455.20024        27.00024                                                                
R09  22520054.24014    181649.83014     -4279.75114        29.00014
R20                        -0.00022     -2188.55022        16.40022
R21  20504947.37006    -67897.95706      1474.18406        36.50006
E01  25764630.06724         0.00024      2241.40024        24.40024                                                                
E13  23336912.54125      5948.48525      -897.69825        32.00025  23334992.97006     30550.54006      -670.36706        36.30006
E15  26572361.48606     19704.96006     -2586.63706        36.70006  26570454.207 5     89287.741 5     -1931.334 5        31.400 5
E21  23452600.65205      1876.05405       -94.67305        32.70005  23450684.37906      2730.60306       -70.73106        35.60006
E26  24008499.81105    -36755.61605      1704.94205        31.80005  24006593.13104    -59466.15704      1273.54904        24.90004
E27  25473149.35515     57582.60215     -2445.41115        34.20015  25471245.67324        -0.00024     -1827.05024        25.00024
> 2021 04 28 22 20 06.4299102  0 15                      
G02  21093271.08706     59786.67106     -1283.96306        37.80006                                                                
G06  22567516.08905    133742.36205     -2957.69605        33.20005  22565146.82906    103930.56306     -2208.75206        36.90006
G12  20111911.26906    -14133.61606       265.22806        40.50006                                                                
G19  24353787.17914    135119.16314     -2865.15614        29.10014                                                                
G24  23523647.77305    140970.47505     -3183.99805        33.60005  23521291.70424        -0.00024     -2378.15024        27.80024
G25  21590743.99424         0.00024      2496.15024        27.90024                                                                
G29  23815426.77824         0.00024      2448.15024        27.50024                                                                
R09  22520821.31515    185932.44715     -4285.27815        30.70015
R21  20504655.27806    -69369.00306      1468.77606        36.40006
E01  25764213.86124         0.00024      2235.20024        25.60024                                                                
E13  23337084.82715      6849.17015      -903.06115        31.10015  23335163.75706     31223.12806      -674.32706        35.50006
E15  26572854.55106     22294.60506     -2591.69406        37.30006  26570947.27104     91221.64504     -1935.53904        29.10004
E21  23452620.64405      1973.92805      -100.36705        32.30005  23450701.97205      2803.68005       -74.89805        35.00005
E26  24008177.14005    -38457.52705      1699.29505        32.00005                                                                
E27  25473613.93906     60031.91906     -2451.12106        36.30006  25471706.959 4     86019.782 4     -1830.874 4        27.100 4
> 2021 04 28 22 20 07.4299102  0 16                      
G02  21093514.23806     61071.40906     -1287.31006        38.60006                                                                
G05  23709584.47123         0.00023      3410.05023        20.50023                                                                
G06  22568069.22505    136700.62005     -2960.85805        33.30005  22565709.85906    106139.77806     -2211.01106        36.50006
G12  20111855.52706    -14398.06706       261.71006        40.00006                                                                
G19  24354309.43714    137984.36514     -2868.01714        29.10014                                                                
G24  23524247.97705    144155.01705     -3187.02205        32.10005  23521897.304 4    114482.752 4     -2380.131 4        26.500 4
G25  21590262.84724         0.00024      2496.30024        26.20024                                                                
G29  23814980.10724         0.00024      2445.90024        26.80024                                                                
R09  22521643.06514    190218.40014     -4288.56114        29.40014
R21  20504392.07906    -70836.86106      1465.13206        37.10006
E01  25763778.58224         0.00024      2232.15024        27.70024  25761878.19723         0.00023      1666.85023        22.20023
E13  23337257.52715      7752.76215      -906.20115        29.80015  23335335.55806     31897.90206      -676.63806        36.00006
E15  26573348.02806     24886.90506     -2594.70606        37.60006  26571441.04905     93157.51705     -1937.66405        30.40005
E21  23452635.95205      2074.78105      -103.56005        33.30005  23450721.17806      2878.99606       -77.23406        35.70006
E26  24007855.18205    -40156.28905      1696.30205        33.50005                                                                
E27  25474079.83606     62483.58606     -2454.08806        36.40006  25472171.95704     87850.37404     -1832.81404        27.80004
> 2021 04 28 22 20 08.4299102  0 16                      
G02  21093753.10306     62359.50206     -1287.49406        40.40006                                                                
G05  23708925.15724         0.00024      3406.25024        26.90024                                                                
G06  22568631.86505    139662.18705     -2960.49405        34.30005  22566273.99806    108351.31506     -2210.78006        36.80006
G12  20111804.79106    -14658.96306       261.49306        38.80006                                                                
G19  24354872.07714    140853.26614     -2868.06614        29.10014                                                                
G24  23524852.28805    147342.95205     -3188.15805        32.30005  23522507.31104    116863.37404     -2380.96404        28.20004
G25  21589801.39625   -124176.95225      2496.13825        32.20025                                                                
G29  23814497.07124         0.00024      2452.05024        25.50024                                                                
R09  22522457.23105    194507.66705     -4289.22405        29.60005
R21  20504124.59416    -72301.32616      1465.55716        36.70016
E01  25763356.10424         0.00024      2233.35024        27.50024  25761450.32323         0.00023      1668.15023        21.80023
E13  23337424.14105      8660.36105      -906.31205        32.50005  23335509.36705     32575.15705      -676.68805        35.30005
E15  26573842.61606     27482.30006     -2594.37206        39.20006  26571935.03604     95095.57004     -1937.04904        28.30004
E21  23452658.06705      2179.09105      -103.88605        34.60005  23450742.09306      2956.88306       -77.63006        37.70006
E26  24007532.23505    -41851.83805      1695.65805        33.40005  24005623.75624         0.00024      1266.05024        27.20024
E27  25474551.33915     64938.66915     -2455.13715        34.40015  25472633.56704     89684.37104     -1834.59604        29.00004
> 2021 04 28 22 20 09.4299102  0 16                      
G02  21093998.60706     63644.28406     -1280.43606        39.70006                                                                
G05  23708288.07225   -177410.06825      3409.29025        30.30025                                                                
G06  22569193.35005    142619.40605     -2952.17805        33.40005  22566838.48106    110559.56806     -2204.65006        37.60006
G12  20111749.30406    -14923.13306       268.08306        38.00006                                                                
G19  24355419.77215    143717.45615     -2859.19615        30.40015                                                                
G24  23525473.13224        -0.00024     -3182.85024        28.30024  23523109.86815    119243.60515     -2378.37615        33.00015
G25  21589329.79625   -126677.09525      2504.62925        33.60025  21586976.725 4    -94636.246 4      1873.043 4        27.000 4
G29  23814031.46723         0.00023      2455.60023        22.60023                                                                
R09  22523258.85015    198797.04815     -4288.13315        31.70015
R21  20503841.56405    -73769.66605      1472.27905        33.70005
E01  25762942.06424         0.00024      2245.45024        26.90024  25761026.99024         0.00024      1675.75024        25.00024
E13  23337593.19805      9563.71305      -898.96405        33.00005  23335681.72206     33249.60006      -671.29706        36.50006
E15  26574334.24906     30072.87206     -2585.31306        37.30006  26572430.86714     97030.16314     -1930.36314        27.20014
E21  23452679.62615      2280.02615       -98.01215        32.10015  23450761.85306      3032.70706       -73.12006        38.00006
E26  24007204.83615    -43549.26515      1702.87615        31.00015  24005301.154 4    -64550.073 4      1271.049 4        26.700 4
E27  25475016.29115     67391.92015     -2451.96815        30.90015  25473102.11605     91518.18105     -1832.05905        31.60005
> 2021 04 28 22 20 10.4299102  0 16                      
G02  21094244.68106     64924.61806     -1284.95606        40.30006                                                                
G05  23707658.75215   -180820.16315      3407.83815        31.50015                                                                
G06  22569752.70805    145570.13705     -2954.40605        32.90005  22567399.63706    112762.99206     -2206.23106        36.60006
G12  20111701.58106    -15191.20606       262.98806        37.40006                                                                
G19  24355959.04315    146576.17915     -2863.32015        30.40015                                                                
G24  23526065.16625    153714.79625     -3192.20725        34.30025  23523718.69115    121623.13815     -2384.44115        33.70015
G25  21588853.97015   -129181.55415      2499.87915        29.80015  21586500.29914    -96506.85714      1867.19114        25.70014
G29  23813568.53224         0.00024      2450.90024        24.60024                                                                
R09  22524064.93724        -0.00024     -4289.30024        26.90024
R21  20503581.88805    -75241.31105      1465.46705        34.90005
E01  25762507.90924         0.00024      2239.80024        28.40024  25760594.33423         0.00023      1673.25023        23.40023
E13  23337767.92215     10461.26615      -902.67215        31.80015  23335853.44705     33920.45505      -674.11005        33.80005
E15  26574828.25206     32656.49206     -2586.95706        37.80006  26572919.77314     98958.20914     -1931.17914        28.70014
E21  23452693.66015      2378.16815      -103.45415        32.20015  23450780.68506      3105.95006       -77.01406        38.10006
E26  24006886.40116    -45249.96816      1694.41916        36.30016  24004975.22405    -65820.74705      1265.58805        31.70005
E27  25475479.71515     69846.51615     -2459.24415        31.90015  25473571.53614     93349.78114     -1835.19214        29.20014
> 2021 04 28 22 20 11.4299102  0 17                      
G02  21094487.15606     66211.98406     -1284.59906        37.70006                                                                
G05  23707003.34915   -184223.50815      3401.85515        33.70015                                                                
G06  22570317.76006    148526.27806     -2953.02206        40.00006  22567962.59006    114970.61406     -2205.23306        40.40006
G12  20111658.05515    -15451.63815       262.23215        34.20015                                                                
G19  24356496.21415    149441.73615     -2861.85915        34.30015                                                                
G24  23526698.87124        -0.00024     -3192.50024        26.90024  23524327.21315    124010.48915     -2386.12015        32.30015
G25  21588375.44415   -131677.30915      2496.08715        31.20015  21586024.17224         0.00024      1866.75024        23.80024
G29  23813078.01523         0.00023      2452.20023        21.70023                                                                
R09  22524844.94025    207379.27725     -4295.53225        30.80025
R20                        -0.00022     -2191.10022        17.10022
R21  20503298.52715    -76702.83715      1462.58515        34.90015
E01  25762071.05524         0.00024      2237.40024        26.00024                                                                
E13  23337941.14515     11366.88615      -903.21315        32.40015  23336026.67106     34596.58206      -674.56406        37.10006
E15  26575324.05206     35245.16906     -2585.39806        39.60006  26573410.17706    100891.45406     -1930.54006        36.40006
E21  23452715.48924        -0.00024      -103.95024        26.40024  23450801.01416      3185.57216       -77.79516        36.10016
E26  24006564.36715    -46942.48315      1692.93715        30.30015  24004654.68915    -67083.20915      1264.22115        31.70015
E27  25475956.02815     72306.64315     -2454.14215        32.20015  25474041.85314     95188.35414     -1837.10514        28.10014
> 2021 04 28 22 20 12.4299102  0 16                      
G02  21094738.40015     67495.43815     -1286.47515        33.50015                                                                
G05  23706345.92114   -187627.66914      3400.20214        29.10014                                                                
G06  22570875.39106    151477.19206     -2952.40306        38.10006  22568524.11906    117174.19306     -2204.79806        39.30006
G12  20111603.51016    -15714.13216       259.54516        37.50016                                                                
G19  24357041.55406    152300.06606     -2859.09106        38.60006                                                                
G24  23527291.57824        -0.00024     -3196.85024        28.00024  23524934.31014    126396.34914     -2391.33314        28.10014
G25  21587906.28714   -134175.69414      2495.78814        29.30014  21585548.119 5   -100226.749 5      1862.822 5        32.000 5
G29  23812638.53624         0.00024      2452.00024        26.60024                                                                
R09  22525667.58825        -0.00025     -4297.05025        32.10025
R21  20503017.93915    -78165.36015      1458.26215        34.70015
E01  25761651.96325     -1205.64325      2234.14725        31.20025  25759742.584 5    -89603.580 5      1671.553 5        32.600 5
E13  23338112.94415     12269.24715      -904.79015        34.20015  23336197.27006     35270.23506      -675.67106        36.60006
E15  26575810.93215     37827.18515     -2583.78215        33.60015  26573900.95405    102820.12305     -1929.77905        33.10005
E21  23452733.79324        -0.00024      -104.40024        26.90024  23450821.11715      3261.37815       -79.63515        34.90015
E26  24006244.50624         0.00024      1684.85024        26.10024  24004331.83014    -68348.87014      1262.43014        25.80014
E27  25476419.82515     74763.16315     -2460.44415        33.90015  25474502.65214     97024.53814     -1836.63414        25.80014
> 2021 04 28 22 20 13.4299102  0 17                      
G02  21094978.00805     68782.47205     -1284.44505        32.70005                                                                
G05  23705700.84215   -191024.35315      3399.45815        30.10015                                                                
G06  22571438.77507    154429.52107     -2949.81107        43.30007  22569086.60415    119378.64415     -2202.86015        30.00015
G12  20111556.81616    -15972.88516       260.12516        38.10016                                                                
G19  24357580.65506    155157.87806     -2853.76206        38.20006                                                                
G24  23527903.22924        -0.00024     -3196.95024        27.70024  23525542.96314    128788.72614     -2390.01814        26.20014
G25  21587426.09315   -136667.47515      2490.70515        35.30015  21585072.42306   -102086.83606      1860.28806        39.50006
G29  23812158.04324         0.00024      2449.55024        24.40024                                                                
R09  22526454.01825    215966.64225     -4294.00625        31.00025
R20  20246329.71523        -0.00023     -2183.70023        21.20023
R21  20502739.80625         0.00025      1457.95025        30.60025
E01  25761230.22906     -3434.70206      2230.26006        37.00006  25759316.35416    -91271.15116      1665.21416        39.90016
E13  23338287.19715     13174.16715      -904.34615        30.50015  23336368.82505     35946.78705      -674.58905        33.30005
E15  26576302.06606     40411.13306     -2580.77306        37.70006  26574395.38624        -0.00024     -1926.65024        27.00024
E21  23452757.85124        -0.00024      -107.90024        26.90024  23450840.97805      3342.76105       -79.82005        34.30005
E26  24005917.20725      -961.93525      1686.10825        30.00025  24004009.32714    -69607.41314      1258.38414        27.70014
E27  25476891.17215     77223.50315     -2457.82915        30.50015  25474973.40005     98861.00205     -1833.82205        30.50005
> 2021 04 28 22 20 14.4299102  0 17                      
G02  21095218.06906     70063.00406     -1282.07906        37.40006                                                                
G05  23705064.01124         0.00024      3408.35024        26.20024                                                                
G06  22571999.61507    157375.37207     -2947.33607        41.50007  22569645.64406    121578.90206     -2200.80406        36.40006
G12  20111503.08126    -16236.52526       262.40726        37.90026                                                                
G19  24358123.80706    158006.84706     -2850.05906        37.10006                                                                
G24  23528496.14625    166488.18425     -3194.05325        30.70025  23526153.86715    131174.92015     -2385.51915        30.70015
G25  21586958.64425   -139161.24525      2493.22925        34.20025  21584598.97805   -103949.00805      1861.02805        33.60005
G29  23811719.37524         0.00024      2448.45024        24.40024                                                                
R09  22527284.07124        -0.00024     -4287.65024        27.60024
R20  20246762.543 5     92343.069 5     -2185.929 5        29.700 5
R21  20502480.41324         0.00024      1458.05024        28.70024
E01  25760805.05115     -5667.02715      2233.02615        32.50015  25758893.57405    -92938.14205      1665.41405        32.50005
E13  23338456.50816     14077.55516      -900.91516        38.80016  23336541.43306     36618.41106      -672.62806        36.70006
E15  26576793.05406     42987.88906     -2578.05106        38.20006  26574888.772 4    106661.570 4     -1925.123 4        26.300 4
E21  23452786.25924        -0.00024      -102.90024        25.00024  23450861.59105      3419.83105       -77.91805        31.20005
E26  24005600.85324         0.00024      1689.95024        28.60024  24003688.17714    -70869.10514      1265.13114        29.00014
E27  25477353.68015     79707.28615     -2451.06815        30.90015  25475438.30606    100690.52106     -1829.58306        40.00006
> 2021 04 28 22 20 15.4299102  0 17                      
G02  21095469.81406     71349.39706     -1288.27806        41.00006                                                                
G05  23704400.18924         0.00024      3401.80024        26.30024                                                                
G06  22572559.84606    160327.42506     -2953.96406        40.20006  22570207.67406    123783.25606     -2205.91506        38.20006
G12  20111455.93327    -16494.30327       255.96627        41.50027                                                                
G19  24358670.54706    160861.38006     -2856.51106        37.60006                                                                
G24  23529105.84325    169686.46925     -3200.00525        32.50025  23526758.76814    133563.17614     -2389.57014        28.90014
G25  21586477.69625   -141649.51725      2486.00525        34.60025  21584126.72405   -105806.66805      1856.33105        34.80005
G29  23811230.63223         0.00023      2444.25023        22.50023                                                                
R09  22528110.21824        -0.00024     -4297.60024        24.20024
R20  20247170.47905     94532.19105     -2191.00505        32.30005
R21  20502202.12525    -82552.48325      1451.05425        29.90025
E01  25760380.46415     -7894.10215      2224.85115        34.30015  25758468.98715    -94599.40615      1660.21715        34.30015
E13  23338627.60806     14982.92606      -907.19306        38.50006  23336714.33306     37294.41306      -677.33206        37.40006
E15  26577283.73306     45570.54306     -2584.36606        36.80006  26575377.65315    108591.17615     -1931.08015        30.80015
E21  23452791.87424        -0.00024      -110.80024        26.10024  23450882.19605      3500.84205       -82.30605        34.60005
E26  24005285.69025     -4334.93925      1682.19225        31.00025  24003367.91816    -72130.64516      1256.51616        36.80016
E27  25477822.47424        -0.00024     -2456.25024        28.40024  25475905.30207    102523.21607     -1834.03907        42.60007
> 2021 04 28 22 20 16.4299102  0 17                      
G02  21095713.22106     72638.17006     -1288.21106        41.40006                                                                
G05  23703758.30924         0.00024      3402.80024        25.50024                                                                
G06  22573126.12906    163282.16606     -2954.63206        40.80006  22570770.66006    125989.76706     -2206.52406        37.70006
G12  20111404.04426    -16749.99226       256.45226        40.20026                                                                
G19  24359214.94506    163718.66906     -2857.75006        38.90006                                                                
G24  23529723.09125    172886.36825     -3198.28725        33.70025  23527368.52114    135951.62714     -2388.20114        29.40014
G25  21586006.39815   -144135.60415      2488.34015        33.70015  21583652.72715   -107663.08515      1857.67815        34.60015
G29  23810774.62324         0.00024      2440.80024        23.80024                                                                
R09  22528864.77024        -0.00024     -4295.30024        23.50024
R20  20247580.87005     96723.55705     -2190.71105        32.50005
R21  20501964.36424         0.00024      1453.05024        26.50024
E01  25759956.23215    -10118.67815      2226.60815        34.40015  25758044.75605    -96261.03505      1662.99705        33.90005
E13  23338800.56406     15890.43906      -907.04806        39.20006  23336886.38906     37972.15406      -677.43106        38.50006
E15  26577775.66806     48155.73106     -2585.26606        37.90006  26575869.58705    110521.68605     -1930.58705        32.30005
E21  23452815.83224        -0.00024      -109.85024        27.30024  23450902.85705      3583.52005       -81.99305        34.10005
E26  24004960.39115     -6017.62715      1684.11115        31.50015  24003047.11506    -73387.06906      1257.72206        35.90006
E27  25478293.12424        -0.00024     -2456.10024        26.90024  25476372.35307    104357.80207     -1834.45107        42.20007
> 2021 04 28 22 20 17.4299102  0 17                      
G02  21095955.16206     73923.47206     -1282.75106        39.80006                                                                
G05  23703104.77024         0.00024      3410.80024        25.40024                                                                
G06  22573683.75207    166234.90607     -2951.14207        41.50007  22571332.48006    128194.79506     -2203.74206        39.40006
G12  20111357.28526    -17009.98226       263.19026        39.30026                                                                
G19  24359759.37706    166574.86806     -2854.98606        39.20006                                                                
G24  23530327.78125    176079.22725     -3187.83325        33.60025  23527975.31015    138335.85215     -2380.59815        31.30015
G25  21585536.63215   -146628.50115      2495.82215        32.00015  21583178.46415   -109525.63215      1865.45615        30.00015
G29  23810307.55524         0.00024      2451.65024        27.10024                                                                
R09  22529705.99724        -0.00024     -4282.60024        25.00024
R20  20248010.18205     98911.34505     -2185.30105        32.50005
R21  20501639.39824         0.00024      1465.05024        28.80024
E01  25759532.33515    -12350.87315      2235.52615        32.90015  25757621.75805    -97927.57905      1669.55705        32.70005
E13  23338969.35606     16794.16806      -900.84506        37.40006  23337058.77806     38647.01106      -672.73306        37.80006
E15  26578267.33606     50739.05106     -2581.80806        38.90006  26576360.05705    112450.80205     -1928.08105        31.80005
E21  23452838.32624        -0.00024      -103.10024        28.70024  23450923.85105      3662.37205       -76.32305        32.90005
E26  24004639.02206     -7706.72206      1694.43506        35.90006  24002724.84705    -74648.96005      1265.41605        35.00005
E27  25478752.415 5      1544.513 5     -2450.371 5        31.400 5  25476839.73907    106189.83107     -1829.78707        43.30007
> 2021 04 28 22 20 18.4299102  0 17                      
G02  21096201.21406     75208.84206     -1291.83706        38.20006                                                                
G05  23702481.42324         0.00024      3404.35024        26.40024                                                                
G06  22574246.08407    169189.15607     -2960.61407        43.40007  22571894.81206    130400.88406     -2210.88906        37.70006
G12  20111302.34506    -17270.47106       254.58806        40.50006                                                                
G19  24360300.42506    169432.99706     -2864.75806        39.50006                                                                
G24  23530929.38605    179268.27505     -3193.91205        33.30005  23528583.81005    140716.94305     -2385.02705        31.50005
G25  21585049.99124         0.00024      2490.05024        28.90024  21582702.31614   -111388.78914      1859.20314        28.50014
G29  23809866.48223         0.00023      2440.95023        22.80023                                                                
R09  22530590.90623        -0.00023     -4290.80023        23.10023
R20  20248401.63305    101099.34605     -2194.52305        30.60005
R21  20501425.268 5    -86926.455 5      1459.535 5        29.700 5
E01  25759108.35024         0.00024      2227.25024        26.20024  25757195.37405    -99595.91705      1664.02705        33.20005
E13  23339144.95606     17697.35606      -909.21606        38.50006  23337230.18106     39321.48906      -679.06206        37.40006
E15  26578759.81706     53323.96506     -2591.15606        38.00006  26576852.83705    114381.29405     -1935.16405        30.70005
E21  23452864.03024        -0.00024      -110.25024        28.40024  23450942.36005      3740.06005       -82.07105        33.00005
E26  24004315.76806     -9400.32806      1688.12506        36.30006  24002404.59105    -75913.60705      1260.62305        34.90005
E27  25479220.61205      3996.17905     -2458.34405        33.00005  25477306.43706    108021.22006     -1835.97306        41.30006
> 2021 04 28 22 20 19.4299102  0 17                      
G02  21096443.46006     76504.31506     -1295.42706        36.40006                                                                
G05  23701842.58024         0.00024      3397.35024        26.50024                                                                
G06  22574813.60607    172153.46707     -2963.30807        44.00007  22572458.43606    132614.34806     -2212.89706        39.60006
G12  20111256.19106    -17521.03006       250.07906        37.90006                                                                
G19  24360840.66506    172301.02006     -2866.39406        38.00006                                                                
G24  23531545.17424        -0.00024     -3196.70024        27.30024  23529191.50405    143105.50105     -2389.59705        33.50005
G25  21584586.52625   -151615.14625      2484.65625        34.40025  21582231.05616   -113245.04216      1854.90716        35.60016
G29  23809403.61724         0.00024      2437.55024        24.80024                                                                
R09  22531299.33024        -0.00024     -4298.10024        25.90024
R20  20248836.34615    103297.63015     -2197.94415        29.80015
R21  20501117.39615    -88381.45415      1450.34015        30.10015
E01  25758680.26124         0.00024      2223.30024        29.00024  25756772.38205   -101256.77005      1660.20105        31.00005
E13  23339315.55206     18610.77406      -913.50606        37.80006  23337402.87606     40003.61306      -682.23806        37.60006
E15  26579255.08906     55918.78106     -2593.51306        38.80006  26577344.21215    116318.83015     -1937.91515        30.30015
E21  23452884.73025       363.72425      -115.10425        30.60025  23450965.15905      3825.40405       -85.87405        34.70005
E26  24003995.90406    -11083.73006      1681.85106        36.50006  24002083.82705    -77170.75205      1255.88205        35.20005
E27  25479689.50215      6458.18015     -2462.59415        30.90015  25477774.72806    109860.17306     -1839.07706        41.10006
> 2021 04 28 22 20 20.4299102  0 17                      
G02  21096695.96806     77798.58806     -1292.52706        36.40006                                                                
G05  23701170.82724   -214852.45224      3399.29224        28.60024                                                                
G06  22575373.10107    175114.40307     -2959.03407        42.20007  22573022.72806    134825.52106     -2209.69906        40.00006
G12  20111211.00515    -17772.21215       251.74815        34.20015                                                                
G19  24361392.06606    175164.20706     -2860.45206        40.80006                                                                
G24  23532164.92824        -0.00024     -3197.55024        26.70024  23529798.06605    145495.27905     -2389.43305        30.20005
G25  21584110.83726   -154098.79126      2483.51226        36.40026  21581758.36615   -115099.62715      1854.36315        33.60015
G29  23808907.24324    -64826.66324      2435.02424        29.00024                                                                
R09  22532086.96723        -0.00023     -4299.15023        22.20023
R20  20249230.95505    105494.19705     -2195.38205        30.90005
R21  20500868.05124         0.00024      1453.05024        27.90024
E01  25758261.53325     -3508.94225      2222.89325        31.90025  25756349.75605   -102916.81605      1659.88305        32.70005
E13  23339491.31305     19523.12005      -911.05005        34.80005  23337576.53806     40684.88906      -680.11106        37.50006
E15  26579747.73006     58509.60906     -2588.73606        37.90006  26577840.15005    118254.55305     -1933.14505        33.90005
E21  23452903.99924        -0.00024      -114.10024        28.40024  23450985.92705      3910.96205       -84.91005        33.40005
E26  24003675.80705    -12764.82405      1681.33605        35.40005  24001763.13106    -78426.10306      1255.61506        36.90006
E27  25480153.06325        -0.00025     -2459.55025        29.50025  25478243.08607    111697.96107     -1835.97207        42.70007
> 2021 04 28 22 20 21.4299102  0 17                      
G02  21096940.22906     79088.47106     -1286.34506        40.20006                                                                
G05  23700519.30915   -218257.09215      3411.24115        32.40015                                                                
G06  22575937.84006    178070.74006     -2952.85806        38.90006  22573582.07105    137032.93205     -2204.71405        31.70005
G12  20111163.26826    -18026.32026       257.25326        39.20026                                                                
G19  24361933.72106    178021.03406     -2852.29406        38.20006                                                                
G24  23532772.23724        -0.00024     -3190.20024        25.20024  23530407.77405    147882.57905     -2384.44905        33.00005
G25  21583640.39326   -156583.44826      2486.39326        36.60026  21581285.52405   -116954.97405      1856.61105        32.10005
G29  23808432.90224         0.00024      2438.00024        24.60024                                                                
R09  22532910.42724        -0.00024     -4287.65024        27.80024
R20  20249626.31224        -0.00024     -2189.90024        28.90024
R21  20500565.19125    -91279.29225      1451.36325        30.70025
E01  25757839.95505     -5732.39005      2225.58605        35.10005  25755924.58105   -104577.49105      1662.15305        32.30005
E13  23339661.82506     20431.47206      -905.04306        37.20006  23337750.34806     41363.09206      -675.77106        37.90006
E15  26580239.92006     61095.45906     -2581.98406        39.00006  26578329.04214    120185.35114     -1928.08714        26.10014
E21  23452934.20824        -0.00024      -110.05024        25.20024  23451005.34405      3993.92205       -80.38605        32.30005
E26  24003352.86105    -14448.20505      1686.55405        35.10005  24001443.18305    -79683.38905      1259.69005        34.60005
E27  25480625.16725     11373.02925     -2450.10425        34.30025  25478710.39306    113530.98906     -1829.22806        40.30006
> 2021 04 28 22 20 22.4299102  0 17                      
G02  21097183.54006     80375.15506     -1289.04706        36.00006                                                                
G05  23699863.24215   -221671.84615      3415.03015        32.60015                                                                
G06  22576498.93106    181023.85606     -2955.58006        41.20006  22574146.16015    139238.08715     -2207.38015        31.10015
G12  20111111.58426    -18283.13226       254.60626        38.90026                                                                
G19  24362482.82006    180872.56106     -2853.19906        36.40006                                                                
G24  23533390.28923        -0.00023     -3191.25023        22.50023  23531016.23314    150266.28014     -2384.47114        27.00014
G25  21583168.70015   -159067.89115      2481.54515        35.20015  21580812.63115   -118810.19615      1852.92115        29.90015
G29  23807978.59623         0.00023      2437.90023        23.40023                                                                
R09  22533688.868 5    254554.583 5     -4286.419 5        31.400 5
R20  20250045.90124        -0.00024     -2192.45024        27.40024
R21  20500313.24505    -92730.16605      1448.35205        35.00005
E01  25757415.92815     -7956.31315      2219.93215        34.30015  25755502.95314   -106237.63814      1657.54314        27.60014
E13  23339833.48606     21336.63506      -907.62606        39.20006  23337922.30906     42039.15606      -677.88506        38.00006
E15  26580730.85906     63677.75006     -2584.65706        39.60006  26578819.98214    122113.83714     -1930.43914        28.00014
E26  24003041.85625         0.00025      1685.65025        29.50025  24001121.38615    -80942.88215      1257.57915        31.70015
E27  25481087.62724        -0.00024     -2445.70024        28.40024  25479175.85005    115358.88205     -1828.59405        33.80005
E21                                                                  23451026.50905      4074.45805       -82.12805        34.70005
> 2021 04 28 22 20 23.4299101  0 17                      
G02  21097397.72206     81663.81806     -1288.82006        41.40006                                                                
G05  23699195.73515   -225088.02415      3418.05415        34.10015                                                                
G06  22577030.29406    183979.93006     -2956.49106        40.20006  22574678.42206    141445.74206     -2207.75106        37.90006
G12  20111037.36526    -18537.91026       254.42726        38.10026                                                                
G19  24362988.70106    183725.28806     -2852.12406        38.60006                                                                
G24  23533966.92124        -0.00024     -3186.65024        24.10024  23531592.56415    152648.77315     -2381.85115        32.50015
G25  21582668.17715   -161548.77015      2479.79015        31.70015  21580312.70715   -120661.66415      1850.41615        32.90015
G29  23807514.34823         0.00023      2435.65023        22.90023                                                                
R09  22534487.04615    258838.66315     -4280.65615        30.90015
R20  20250444.15624        -0.00024     -2193.65024        27.80024
R21  20500003.09006    -94178.69406      1447.66606        37.40006
E01  25756960.37415    -10175.85015      2218.03515        33.80015  25755055.19314   -107895.85414      1655.93114        24.10014
E13  23339980.51506     22244.11506      -907.74306        39.10006  23338065.44006     42716.75806      -677.77806        37.10006
E15  26581192.97006     66262.91506     -2585.56106        38.50006  26579282.69206    124044.22706     -1930.64306        35.50006
E21  23452937.51624        -0.00024      -109.10024        23.90024  23451017.04605      4156.11005       -81.54405        33.70005
E26  24002682.236 5    -17818.905 5      1686.897 5        34.500 5  24000771.35916    -82201.72916      1259.46416        37.70016
E27  25481520.65725     16265.86425     -2444.35625        34.10025  25479610.97906    117185.43906     -1825.30506        36.20006
> 2021 04 28 22 20 24.4299101  0 17                      
G02  21097644.02807     82955.37307     -1295.59607        42.90007                                                                
G05  23698534.86915   -228504.86515      3414.55615        34.80015                                                                
G06  22577597.67706    186938.98706     -2962.98506        37.60006  22575242.20806    143655.51006     -2212.58906        37.20006
G12  20110986.27706    -18788.90206       247.12806        38.40006                                                                
G19  24363531.80106    186578.97506     -2856.63906        39.20006                                                                
G24  23534560.68624        -0.00024     -3192.40024        26.40024  23532200.42006    155031.71106     -2385.58306        36.20006
G25  21582202.77524         0.00024      2479.75024        27.70024  21579838.01205   -122510.06405      1844.41705        33.00005
G29  23807060.33823         0.00023      2436.65023        23.10023                                                                
R09  22535271.47905    263121.19905     -4285.06805        35.00005
R20  20250865.24124        -0.00024     -2202.25024        28.10024
R21  20499734.05205    -95622.61405      1439.20905        32.80005
E01  25756541.74015    -12389.44515      2208.71315        31.60015  25754629.06405   -109548.81705      1649.17105        31.50005
E13  23340154.27016     23154.68316      -914.71116        36.80016  23338237.69705     43396.77505      -683.13105        31.80005
E15  26581686.60406     68850.86106     -2591.56606        38.10006  26579775.72705    125976.89405     -1935.47405        31.30005
E21  23452962.57524        -0.00024      -115.70024        25.70024  23451038.50705      4239.83605       -86.91405        32.00005
E26  24002362.83306    -19502.32506      1679.04906        35.90006  24000450.75706    -83458.77006      1253.89606        36.80006
E27  25481985.21215     18712.34015     -2448.45715        31.80015  25480076.73305    119011.72305     -1828.29605        33.60005
> 2021 04 28 22 20 25.4299101  0 17                      
G02  21097891.77007     84250.86707     -1291.83407        42.60007                                                                
G05  23697885.03206   -231920.72006      3419.69706        38.20006                                                                
G06  22578159.00206    189902.36906     -2960.19906        36.90006  22575806.23106    145868.29706     -2210.43206        38.70006
G12  20110937.22405    -19036.05905       250.66005        33.70005                                                                
G19  24364076.03706    189435.50006     -2853.60306        38.00006                                                                
G24  23535174.47424    201623.61724     -3188.48424        28.80024  23532807.61205    157416.55205     -2380.41105        33.70005
G25  21581725.31925         0.00025      2478.20025        31.80025  21579370.14906   -124354.42006      1847.34806        35.90006
G29  23806579.88424         0.00024      2445.75024        23.80024                                                                
R09  22536086.42815    267404.58915     -4279.51615        35.00015
R20  20251243.99224        -0.00024     -2198.90024        26.40024
R21  20499488.03615    -97064.36715      1453.50415        30.50015
E01  25756126.64124         0.00024      2211.55024        27.30024  25754208.56905   -111197.88405      1652.28205        30.90005
E13  23340330.06205     24069.43005      -911.05105        34.90005  23338408.69214     44079.93314      -680.36114        29.40014
E15  26582180.47506     71442.84206     -2588.67106        38.30006  26580267.50005    127912.30205     -1932.99205        32.30005
E21  23452974.08024        -0.00024      -111.90024        26.90024  23451061.40405      4326.64605       -83.59605        31.50005
E26  24002041.26915    -21182.70715      1684.30115        32.90015  24000131.29106    -84713.17206      1257.86406        37.10006
E27  25482456.59815     21159.71415     -2444.96115        32.80015  25480542.42405    120839.12905     -1824.84705        34.70005
> 2021 04 28 22 20 26.4299101  0 17                      
G02  21098136.32507     85542.39307     -1296.87807        42.40007                                                                
G05  23697233.50705   -235340.79705      3414.65305        33.40005                                                                
G06  22578724.03506    192862.28106     -2964.96906        41.00006  22576367.66706    148078.67006     -2214.18306        37.00006
G12  20110893.67916    -19287.78116       246.55816        36.30016                                                                
G19  24364620.38506    192289.16806     -2859.07506        36.80006                                                                
G24  23535775.48224        -0.00024     -3186.90024        26.10024  23533413.11815    159795.72515     -2383.58915        32.10015
G25  21581253.37026   -169005.15726      2470.67826        36.60026  21578897.90105   -126202.86105      1844.91705        32.70005
G29  23806104.33824         0.00024      2437.70024        23.60024                                                                
R09  22536875.70606    271684.13306     -4284.30706        36.60006
R20  20251656.13124        -0.00024     -2204.20024        26.00024
R21  20499195.06325         0.00025      1443.75025        31.50025
E01  25755698.76224         0.00024      2208.70024        26.80024  25753786.98505   -112851.29805      1649.98805        35.20005
E13  23340501.16805     24979.73605      -915.07205        34.70005  23338584.29515     44759.66915      -683.28815        31.40015
E15  26582671.16006     74031.32306     -2593.29806        36.20006  26580760.88305    129845.23005     -1936.92605        31.10005
E21  23453015.97623        -0.00023      -102.95023        22.80023  23451083.51405      4409.54805       -86.76405        31.20005
E26  24001723.11424         0.00024      1681.80024        27.70024  23999809.53815    -85971.96715      1255.32615        30.80015
E27  25482917.30415     23602.84815     -2448.21715        32.90015  25481007.02715    122663.66115     -1828.44815        35.00015
> 2021 04 28 22 20 27.4299101  0 17                      
G02  21098385.31107     86843.22007     -1299.20207        42.80007                                                                
G05  23696583.71515   -238752.00015      3414.19415        33.00015                                                                
G06  22579288.70306    195831.47406     -2967.49706        41.00006  22576933.53306    150295.89906     -2216.10406        37.20006
G12  20110842.27316    -19530.17816       243.73216        36.00016                                                                
G19  24365163.16706    195151.84306     -2860.35806        38.90006                                                                
G24  23536368.93024        -0.00024     -3193.50024        27.90024  23534022.15406    162182.48406     -2385.39506        38.20006
G25  21580781.05526   -171471.44326      2467.10726        35.80026  21578428.58415   -128044.52915      1842.29115        31.80015
G29  23805647.61224         0.00024      2435.15024        25.00024                                                                
R09  22537669.71515    275972.12515     -4286.11615        32.90015
R20  20252076.59824        -0.00024     -2208.60024        27.80024
R21  20498934.10224         0.00024      1442.80024        26.20024
E01  25755284.30725     -1256.86825      2205.94225        32.40025  25753368.03305   -114498.07905      1647.41505        35.40005
E13  23340678.80305     25899.28305      -918.12105        32.70005  23338758.63305     45446.44005      -685.57405        31.60005
E15  26583165.07705     76628.90405     -2595.98805        35.30005  26581254.49905    131785.12605     -1938.29005        31.40005
E21  23453026.02724        -0.00024      -119.60024        24.90024  23451104.65705      4499.43905       -88.90105        31.20005
E26  24001413.58624         0.00024      1675.80024        25.40024  23999492.21605    -87224.05605      1253.12505        34.00005
E27  25483385.13815     26055.07015     -2449.85515        32.10015  25481473.66205    124495.06205     -1829.57605        32.80005
> 2021 04 28 22 20 28.4299101  0 17                      
G02  21098630.41107     88138.65607     -1294.55507        42.80007                                                                
G05  23695930.93716   -242170.69616      3421.09816        36.70016                                                                
G06  22579851.88306    198794.97306     -2962.28606        40.40006  22577496.11306    152508.92306     -2212.02406        37.50006
G12  20110795.97415    -19777.39415       247.87215        34.90015                                                                
G19  24365711.35806    198007.49706     -2853.42906        40.10006                                                                
G24  23536991.46924        -0.00024     -3186.45024        28.10024  23534629.40415    164565.13715     -2381.85715        33.20015
G25  21580317.14626   -173941.05326      2468.93826        38.10026  21577958.97905   -129888.69805      1843.62705        33.20005
G29  23805188.79923         0.00023      2441.05023        23.00023                                                                
R09  22538499.71015    280253.85915     -4278.99915        32.20015
R20  20252492.88024        -0.00024     -2202.20024        28.50024
R21  20498683.945 5   -101418.200 5      1439.654 5        29.900 5
E01  25754863.26815     -3465.40015      2207.86015        33.40015  25752947.29405   -116147.42505      1648.72605        35.40005
E13  23340849.55505     26813.70605      -913.68105        31.60005  23338932.98205     46129.18505      -682.23505        33.00005
E15  26583658.70505     79220.38005     -2590.18205        35.20005  26581746.62805    133720.29705     -1934.14005        32.10005
E21  23453046.88224        -0.00024      -114.35024        26.90024  23451125.81215      4585.44815       -85.44615        31.50015
E26  24001084.58424         0.00024      1679.85024        27.50024  23999171.60805    -88479.59205      1255.59705        33.80005
E27  25483843.39124        -0.00024     -2445.10024        26.70024  25481939.10914    126321.09714     -1824.46314        29.20014
> 2021 04 28 22 20 29.4299101  0 16                      
G02  21098876.85707     89434.60607     -1297.12307        42.80007                                                                
G05  23695281.60326   -245592.77626      3423.55026        39.00026                                                                
G06  22580415.50906    201758.15006     -2963.95006        40.50006  22578060.63906    154721.69206     -2213.33906        37.60006
G12  20110753.12125    -20022.93125       243.75625        34.70025                                                                
G19  24366249.80206    200859.96406     -2851.52706        40.10006                                                                
G24  23537587.17324        -0.00024     -3191.65024        27.50024  23535236.80006    166948.05506     -2383.94906        36.40006
G25  21579841.39226   -176405.69626      2460.62626        38.10026  21577489.52005   -131729.18005      1837.54205        32.60005
R09  22539280.98606    284532.12206     -4277.37106        35.90006
R20  20252920.10124    125291.41724     -2207.56924        29.00024
R21  20498397.36014   -102855.55914      1431.94314        29.40014
E01  25754443.87515     -5668.57815      2199.21315        32.20015  25752527.90106   -117792.77206      1642.29306        36.50006
E13  23341026.74905     27728.88805      -916.79205        31.70005  23339107.77705     46812.66305      -684.67605        32.30005
E15  26584148.88205     81811.19305     -2591.45205        33.80005  26582238.90405    135654.92705     -1935.03505        32.20005
E21  23453060.39024        -0.00024      -118.40024        28.90024  23451147.41405      4672.77305       -88.51905        30.40005
E26  24000758.42624         0.00024      1674.80024        25.80024  23998852.34605    -89733.17505      1251.72905        34.70005
E27  25484310.18525      1526.69325     -2441.91425        30.90025  25482404.70415    128144.69915     -1822.94515        32.60015
> 2021 04 28 22 20 30.4299101  0 16                      
G02  21099122.63907     90730.15307     -1296.25407        42.20007                                                                
G05  23694631.90506   -249019.67106      3428.62106        40.00006                                                                
G06  22580981.76906    204720.25706     -2962.38706        39.20006  22578624.20206    156933.66206     -2212.01806        37.10006
G12  20110706.60505    -20267.58405       243.45005        34.60005                                                                
G19  24366795.67606    203707.85606     -2846.98406        39.60006                                                                
G24  23538232.87824        -0.00024     -3186.95024        24.70024  23535843.83215    169330.64615     -2382.86715        34.60015
G25  21579374.26806   -178865.02906      2456.82606        37.60006  21577021.49705   -133565.69405      1834.93505        31.20005
R09  22540095.47416    288805.73416     -4272.60616        36.10016
R20  20253317.57824        -0.00024     -2209.70024        27.90024
R21  20498111.91015   -104284.41315      1428.17615        30.40015
E01  25754022.61905     -7866.37305      2195.50305        33.40005  25752110.24306   -119433.93206      1639.30106        37.10006
E13  23341195.48415     28644.03815      -915.97415        30.50015  23339282.80905     47496.41505      -684.04905        32.60005
E15  26584645.59105     84400.32205     -2589.15505        34.00005  26582732.31505    137588.28305     -1933.28405        32.40005
E21  23453087.02424        -0.00024      -118.35024        27.70024  23451169.85115      4760.51915       -88.15115        30.10015
E26  24000443.59624         0.00024      1674.90024        24.80024  23998533.01915    -90985.10015      1251.15815        34.20015
E27  25484780.81115      3963.44715     -2434.94015        33.50015  25482867.23605    129964.50005     -1818.69505        33.60005
> 2021 04 28 22 20 31.4299101  0 16                      
G02  21099370.11407     92030.63907     -1302.23507        41.50007                                                                
G05  23693978.50407   -252445.78607      3425.88007        42.60007                                                                
G06  22581538.63006    207686.68906     -2968.00806        38.50006  22579188.55706    159148.82106     -2216.37206        37.80006
G12  20110654.58705    -20506.47305       236.67505        32.80005                                                                
G19  24367334.84906    206557.69406     -2850.28606        37.90006                                                                
G24  23538814.62224        -0.00024     -3190.50024        23.60024  23536451.95715    171716.49615     -2387.41015        31.50015
G25  21578914.53206   -181315.71506      2447.09206        37.20006  21576553.66705   -135395.73505      1827.44505        30.10005
R09  22540888.87106    293081.13706     -4275.83606        40.00006
R20  20253727.84024        -0.00024     -2216.80024        27.50024
R21  20497861.13015   -105707.48115      1419.17415        31.60015
E01  25753607.85205    -10055.27305      2185.20005        34.20005  25751693.67706   -121068.42306      1631.76206        36.10006
E13  23341375.50615     29564.83415      -923.05515        30.20015  23339458.93305     48184.09705      -689.14405        35.00005
E15  26585138.29605     86993.18505     -2594.40205        35.30005  26583227.11905    139524.53305     -1937.37205        33.20005
E21  23453115.05024        -0.00024      -124.30024        28.70024  23451192.78105      4852.35205       -93.56005        30.10005
E26  24000122.96523         0.00023      1666.05023        22.10023  23998215.98505    -92232.34005      1245.36005        32.90005
E27  25485241.73815      6401.76315     -2438.90715        35.20015  25483332.36006    131785.29306     -1821.19106        35.90006
> 2021 04 28 22 20 32.4299101  0 16                      
G02  21099620.74007     93331.87607     -1298.39307        41.70007                                                                
G05  23693323.45706   -255874.29606      3432.79406        41.40006                                                                
G06  22582108.53506    210653.31206     -2963.59006        38.90006  22579753.66606    161364.17706     -2213.13806        37.70006
G12  20110613.21615    -20743.54415       239.39615        32.40015                                                                
G19  24367882.87005    209405.39505     -2843.66005        31.90005                                                                
G24  23539391.42224        -0.00024     -3193.65024        25.70024  23537059.93606    174103.07706     -2384.50106        37.60006
G25  21578445.35706   -183761.65706      2446.62606        36.20006  21576089.28805   -137222.28505      1826.92405        30.70005
R09  22541682.42206    297354.59206     -4269.38406        37.80006
R20  20254124.16624        -0.00024     -2212.60024        27.30024
R21  20497598.21214   -107125.90914      1419.71314        29.40014
E01  25753190.54115    -12239.08115      2184.37415        33.80015  25751278.46506   -122699.22206      1631.21806        36.30006
E13  23341550.58515     30486.88815      -919.66215        30.10015  23339632.21305     48872.66305      -686.80605        33.60005
E15  26585627.25705     89585.85305     -2589.46505        32.90005  26583719.37805    141460.64105     -1933.63505        32.70005
E21  23453132.43824        -0.00024      -121.40024        28.70024  23451216.76405      4945.33105       -91.43405        30.40005
E26  23999819.27524         0.00024      1669.40024        24.10024  23997898.20515    -93477.48515      1246.56515        32.10015
E27  25485707.01605      8838.46705     -2431.91005        35.30005  25483794.64005    133604.54205     -1816.08305        34.90005
> 2021 04 28 22 20 33.4299101  0 16                      
G02  21099868.10506     94629.05506     -1299.35706        41.30006                                                                
G05  23692674.14306   -259310.15506      3435.35106        39.80006                                                                
G06  22582675.47906    213615.12206     -2963.55206        39.00006  22580316.71206    163575.91506     -2213.00406        37.60006
G12  20110562.28825    -20983.73825       237.45125        32.60025                                                                
G19  24368415.33716    212245.72416     -2840.68716        36.90016                                                                
G24  23540033.01424        -0.00024     -3196.15024        27.70024  23537667.35206    176486.78306     -2385.36806        39.10006
G25  21577975.61906   -186207.48506      2441.89406        36.30006  21575624.04605   -139048.72905      1823.51905        29.60005
R09  22542483.20406    301621.17506     -4267.27106        38.30006
R20  20254561.59924        -0.00024     -2213.75024        27.40024
R21  20497325.13715   -108545.15015      1414.85015        29.90015
E01  25752775.36505    -14422.60105      2179.53205        34.50005  25750863.88806   -124329.78606      1627.46406        35.80006
E13  23341723.00205     31405.93505      -920.67605        30.90005  23339807.32805     49558.42605      -687.53605        32.60005
E15  26586124.64915     92172.78415     -2588.96815        32.70015  26584212.57305    143392.79805     -1933.32505        33.60005
E21  23453157.35724        -0.00024      -122.95024        27.20024  23451239.28505      5036.02005       -92.63105        30.30005
E26  23999491.33824         0.00024      1667.05024        24.30024  23997579.86106    -94724.36706      1244.48606        36.80006
E27  25486170.23206     11267.40406     -2429.55806        35.60006  25484257.55606    135418.35506     -1814.20706        37.10006
> 2021 04 28 22 20 34.4299101  0 17                      
G02  21100112.88306     95927.46706     -1297.57306        40.40006                                                                
G05  23692021.64215   -262748.64115      3439.73215        33.20015                                                                
G06  22583232.94106    216577.32106     -2960.91606        39.50006  22580880.16906    165787.94206     -2210.85406        37.10006
G12  20110512.96925    -21221.65025       238.46925        32.40025                                                                
G19  24368956.31026    215083.84226     -2835.53426        38.40026                                                                
G24  23540627.05124        -0.00024     -3186.60024        26.90024  23538273.98006    178871.27306     -2383.72306        39.10006
G25  21577514.38506   -188648.19106      2439.92806        37.20006  21575159.21605   -140871.27405      1822.25605        30.80005
G29  23802470.88024         0.00024      2474.75024        25.00024                                                                
R09  22543284.39615    305885.84315     -4264.54615        34.90015
R20  20254982.05524        -0.00024     -2216.10024        26.50024
R21  20497065.96405   -109959.10105      1413.36205        33.30005
E01  25752363.89705    -16600.90305      2177.84505        34.60005  25750448.52306   -125956.43306      1626.16006        35.60006
E13  23341894.03115     32325.40415      -919.07115        30.10015  23339984.05305     50245.54305      -686.37605        35.40005
E15  26586617.95525        -0.00025     -2584.75025        29.70025  26584703.78015    145324.88215     -1931.64915        30.70015
E21  23453180.28924        -0.00024      -122.60024        26.30024  23451262.81615      5128.29915       -91.63715        29.70015
E26  23999173.40524         0.00024      1665.55024        27.70024  23997263.42806    -95968.73206      1244.62606        36.60006
E27  25486631.16015     13693.69115     -2424.25415        30.70015  25484719.98315    137230.57715     -1810.45215        33.40015
> 2021 04 28 22 20 35.4299100  0 17                      
G02  21100330.32006     97229.00406     -1304.86006        39.50006                                                                
G05  23691332.20724         0.00024      3432.10024        28.20024                                                                
G06  22583775.05306    219541.69906     -2967.38006        39.40006  22581413.88806    168001.57706     -2215.74206        36.80006
G12  20110436.61025    -21455.52225       230.03625        32.40025                                                                
G19  24369467.24426    217922.06426     -2840.58226        39.00026                                                                
G24  23541204.23924        -0.00024     -3195.65024        26.80024  23538852.96615    181258.42915     -2389.60215        30.90015
G25  21577016.51706   -191082.59506      2430.11106        36.90006  21574666.74405   -142689.17805      1814.73705        31.70005
G29  23801966.41724         0.00024      2380.15024        26.10024                                                                
R09  22544057.34925        -0.00025     -4269.00025        31.60025
R20  20255334.69924        -0.00024     -2221.85024        27.20024
R21  20496774.95305   -111366.84405      1403.11105        34.40005
E01  25751914.29605    -18772.78005      2167.47105        33.40005  25750003.71805   -127578.25505      1618.55905        35.20005
E13  23342043.71415     33248.79815      -926.51615        32.20015  23340129.24005     50935.09605      -692.10405        34.90005
E15  26587076.42525     97373.83925     -2590.85025        33.30025  26585166.44715    147258.01315     -1934.88415        31.30015
E21  23453174.38024        -0.00024      -131.30024        28.30024  23451258.40714      5223.37814       -97.74814        28.70014
E26  23998829.03124         0.00024      1657.75024        28.70024  23996916.65505    -97209.45305      1237.80405        34.40005
E27  25487069.84424        -0.00024     -2432.65024        26.80024  25485150.87214    139043.23714     -1815.35614        28.80014
> 2021 04 28 22 20 36.4299100  0 17                      
G02  21100575.87706     98534.19106     -1304.67006        40.80006                                                                
G05  23690681.984 6   -269628.958 6      3436.428 6        35.500 6                                                                
G06  22584333.29406    222509.38406     -2967.02506        39.30006  22581979.62306    170217.71806     -2215.66206        37.60006
G12  20110398.86315    -21685.21015       229.87015        31.90015                                                                
G19  24370010.79506    220762.21906     -2838.95606        38.80006                                                                
G24  23541835.92824        -0.00024     -3195.60024        23.80024  23539461.87215    183648.55515     -2389.89915        31.80015
G25  21576557.86215   -193510.82915      2427.72715        34.20015  21574204.49115   -144502.44215      1812.94615        31.10015
G29  23801497.56824         0.00024      2381.50024        27.10024                                                                
R09  22544857.522 5    314415.039 5     -4267.646 5        33.100 5
R20  20255764.92824        -0.00024     -2221.65024        27.30024
R21  20496492.87524         0.00024      1399.75024        26.30024
E01  25751508.40415    -20938.94215      2166.20415        30.50015  25749594.52905   -129195.42505      1616.72405        33.00005
E13  23342220.61915     34176.28015      -927.07815        30.80015  23340305.84505     51627.59805      -692.36005        33.30005
E15  26587572.60905     99966.14405     -2591.00405        34.50005  26585660.83205    149193.52805     -1934.79005        32.40005
E21  23453193.29424        -0.00024      -131.45024        25.80024  23451283.91614      5320.52114       -96.63814        28.70014
E26  23998512.47824         0.00024      1657.35024        24.50024  23996600.70124         0.00024      1237.55024        27.30024
E27  25487521.65825      1400.83925     -2429.41625        30.30025  25485614.37815    140858.48115     -1813.37015        32.20015
> 2021 04 28 22 20 37.4299100  0 17                      
G02  21100828.89106     99838.25506     -1303.65506        41.20006                                                                
G05  23690027.82516   -273067.21516      3439.81216        37.70016                                                                
G06  22584900.48906    225475.34906     -2965.42406        40.00006  22582543.82106    172432.60306     -2214.48006        37.80006
G12  20110356.88015    -21915.29715       229.59315        33.20015                                                                
G19  24370557.30515    223598.12615     -2834.03615        31.00015                                                                
G24  23542407.92124        -0.00024     -3195.55024        25.50024  23540071.03815    186037.77815     -2388.98015        31.70015
G25  21576101.86606   -195938.66806      2427.06506        36.90006  21573742.79905   -146315.50105      1812.32805        32.10005
G29  23801044.87024         0.00024      2380.35024        24.10024                                                                
R09  22545653.45916    318681.80716     -4265.25216        36.10016
R20  20256180.72824        -0.00024     -2224.95024        26.90024
R21  20496263.22324         0.00024      1399.75024        28.80024
E01  25751097.07705    -23103.32305      2164.27205        34.10005  25749181.10305   -130812.20205      1616.22705        35.20005
E13  23342395.98615     35102.66815      -926.29915        30.70015  23340482.11115     52319.40515      -691.51415        34.00015
E15  26588063.65705    102555.87005     -2589.17205        33.40005  26586152.48005    151127.43205     -1933.43905        32.30005
E21  23453225.06124        -0.00024      -130.10024        26.40024  23451306.98814      5418.52514       -98.39114        29.00014
E26  23998200.98224         0.00024      1655.60024        24.10024  23996287.107 5    -99694.354 5      1237.143 5        32.900 5
E27  25487987.22415      3828.66215     -2425.62715        30.60015  25486074.84815    142670.67615     -1811.16915        30.60015
> 2021 04 28 22 20 38.4299100  0 17                      
G02  21101076.91307    101139.15407     -1298.99107        41.90007                                                                
G05  23689370.47516   -276510.92816      3446.16016        38.40016                                                                
G06  22585461.79506    228437.84106     -2960.36406        39.90006  22583107.22506    174644.81906     -2210.51406        37.90006
G12  20110307.50915    -22147.54715       234.43415        32.70015                                                                
G19  24371090.73015    226429.68415     -2828.85015        33.60015                                                                
G24  23543041.47624        -0.00024     -3191.55024        27.70024  23540679.11216    188424.44616     -2384.80016        37.20016
G25  21575633.38506   -198367.25006      2429.33906        36.70006  21573280.31405   -148129.02205      1814.34805        33.00005
G29  23800600.67223         0.00023      2387.70023        21.80023                                                                
R09  22546453.40006    322942.67806     -4257.56006        39.90006
R20  20256599.33324        -0.00024     -2216.30024        27.10024
R21  20495975.21724         0.00024      1400.50024        27.90024
E01  25750681.65915    -25269.17315      2166.83815        33.20015  25748768.98306   -132429.53106      1618.08206        35.50006
E13  23342572.05915     36026.02015      -921.17915        30.30015  23340657.88405     53009.00405      -688.07405        33.90005
E15  26588557.80915    105141.34815     -2583.52015        32.00015  26586645.13305    153058.46805     -1929.52305        31.00005
E21  23453251.23724        -0.00024      -127.20024        27.30024  23451332.86515      5514.26815       -94.03715        29.80015
E26  23997874.00223         0.00023      1659.05023        22.20023  23995970.02115   -100933.03315      1240.11615        33.30015
E27  25488446.90015      6250.04815     -2418.79115        34.10015  25486537.22205    144479.01105     -1806.20305        35.40005
> 2021 04 28 22 20 39.4299100  0 16                      
G02  21101324.25206    102442.22406     -1306.59606        40.50006                                                                
G05  23688713.63926   -279954.66026      3441.45226        40.00026                                                                
G06  22586026.01406    231401.87506     -2967.33606        39.20006  22583671.74406    176858.20606     -2215.77106        37.70006
G12  20110271.84325    -22377.44225       226.25025        32.80025                                                                
G19  24371625.56926    229261.33926     -2834.44626        39.60026                                                                
G24  23543649.46525    246315.16425     -3201.35525        30.00025  23541287.10115    190812.46615     -2389.46915        35.30015
G25  21575173.21306   -200791.43806      2419.71206        36.60006  21572819.54205   -149939.36605      1806.90505        33.40005
R09  22547254.75516    327203.59116     -4264.01716        36.70016
R20  20257038.23924        -0.00024     -2225.30024        27.50024
R21  20495728.19725   -116965.71525      1392.32925        30.10025
E01  25750269.15415    -27431.09215      2156.85915        32.60015  25748357.67706   -134043.53606      1610.58106        36.30006
E13  23342751.94415     36952.26715      -929.12515        31.10015  23340833.27205     53700.29205      -693.90405        34.20005
E15  26589050.07815    107728.22515     -2590.25215        31.70015  26587137.70215    154991.42515     -1934.23715        30.60015
E21  23453279.42724        -0.00024      -134.45024        26.40024  23451358.35705      5611.93005      -100.49205        30.40005
E26  23997570.32224         0.00024      1651.90024        24.40024  23995655.54806   -102169.50206      1233.50706        36.30006
E27  25488907.99115      8672.46815     -2424.43915        32.60015  25486997.71316    146288.42916     -1811.39016        35.70016
> 2021 04 28 22 20 40.4299100  0 16                      
G02  21101572.02706    103749.20106     -1307.24806        40.30006                                                                
G05  23688058.43926   -283396.43126      3442.05126        41.30026                                                                
G06  22586589.77006    234369.53406     -2967.79906        39.00006  22584235.80006    179074.32006     -2216.20506        37.90006
G12  20110225.52115    -22603.04515       225.27115        33.80015                                                                
G19  24372164.14326    232095.63626     -2834.33026        38.80026                                                                
G24  23544242.00115    249516.91215     -3202.70415        29.70015  23541897.02505    193202.45105     -2391.06105        34.40005
G25  21574715.27606   -203209.87206      2417.83606        37.60006  21572358.30805   -151745.28905      1805.45905        32.80005
R09  22548042.75606    331466.82706     -4263.19206        40.10006
R20  20257438.00824        -0.00024     -2228.55024        28.10024
R21  20495449.23715   -118356.99415      1391.76515        30.00015
E01  25749860.38305    -29586.08605      2154.97905        33.90005  25747947.10806   -135653.19606      1609.19306        36.60006
E13  23342926.26905     37882.04105      -929.92605        32.30005  23341009.69605     54394.61105      -694.49105        34.30005
E15  26589540.68505    110319.17505     -2590.31705        34.60005  26587629.80805    156925.66105     -1934.25405        32.80005
E21  23453296.66124        -0.00024      -134.90024        26.70024  23451382.48715      5712.84715      -100.92015        29.90015
E26  23997245.49424         0.00024      1649.85024        23.70024  23995341.51206   -103402.29506      1232.68506        37.00006
E27  25489368.61805     11097.26105     -2423.90205        34.20005  25487458.94006    148098.61706     -1810.02506        37.40006
> 2021 04 28 22 20 41.4299100  0 17                      
G02  21101819.77906    105055.94106     -1306.65106        40.90006                                                                
G05  23687403.51726   -286839.03426      3442.30226        41.00026                                                                
G06  22587157.40106    237336.76106     -2967.04006        39.10006  22584800.73306    181290.12406     -2215.62906        37.30006
G12  20110183.37525    -22828.69225       225.83725        34.40025                                                                
G19  24372704.19315    234928.34815     -2832.36115        32.40015                                                                
G24  23544847.70624        -0.00024     -3199.20024        27.30024  23542505.72816    195593.89516     -2390.47916        35.80016
G25  21574254.61906   -205628.43006      2419.15506        37.60006  21571898.25105   -153551.33705      1806.51505        32.50005
G29  23799247.98923         0.00023      2369.65023        20.80023                                                                
R09  22548840.32806    335729.54006     -4262.96706        41.00006
R20  20257824.26524        -0.00024     -2227.55024        28.00024
R21  20495204.43015   -119749.38515      1392.70115        32.10015
E01  25749450.99115    -31741.81715      2156.46515        32.80015  25747536.81606   -137262.98506      1610.34706        36.00006
E13  23343100.57305     38811.54505      -929.16605        31.50005  23341187.89705     55088.67405      -693.89905        34.20005
E15  26590032.76805    112908.90305     -2589.41705        34.80005  26588122.79105    158859.48305     -1933.70305        32.40005
E21  23453324.96624        -0.00024      -134.90024        25.80024  23451408.39305      5813.51805      -100.42005        29.80005
E26  23996938.63024         0.00024      1651.75024        24.50024  23995027.45306   -104635.31606      1233.38806        38.30006
E27  25489828.02406     13520.70006     -2423.58606        35.80006  25487919.84506    149908.29306     -1809.75706        37.00006
> 2021 04 28 22 20 42.4299099  0 16                      
G02  21102039.48507    106360.77307     -1302.46207        41.50007                                                                
G05  23686718.14906   -290282.57806      3446.46506        37.80006                                                                
G06  22587689.49106    240302.06306     -2963.10706        38.50006  22585335.22106    183504.48606     -2212.66006        37.50006
G12  20110108.38505    -23055.90505       230.18505        34.80005                                                                
G19  24373223.39215    237759.37815     -2828.66815        31.70015                                                                
G24  23545440.954 5    255919.358 5     -3196.229 5        29.600 5  23543084.58506    197982.69406     -2386.76706        37.00006
G25  21573761.71906   -208050.03306      2424.32106        36.30006  21571407.44805   -155359.69405      1810.55805        32.40005
R09  22549614.35006    339990.90506     -4259.07206        38.40006
R20  20258264.01924        -0.00024     -2222.20024        28.00024
R21  20494908.19315   -121144.54515      1397.96315        30.40015
E01  25749008.75515    -33901.41815      2162.03415        33.10015  25747096.37906   -138875.28806      1614.51606        35.70006
E13  23343244.43105     39738.82105      -924.93205        31.80005  23341334.15405     55781.13005      -690.53105        34.90005
E15  26590492.60815    115496.00415     -2585.42515        32.60015  26588585.62805    160791.87205     -1930.50705        31.20005
E21  23453320.12724        -0.00024      -130.50024        25.10024  23451405.05305      5912.65405       -97.16605        30.50005
E26  23996591.72824         0.00024      1656.80024        26.60024  23994682.65006   -105870.27306      1237.06306        37.30006
E27  25490261.48206     15942.86106     -2419.98006        35.80006  25488350.60506    151717.09006     -1807.11406        36.60006
> 2021 04 28 22 20 43.4299099  0 17                      
G02  21102286.28707    107666.58107     -1310.33107        41.50007                                                                
G05  23686060.77706   -293726.10506      3439.65406        38.80006                                                                
G06  22588251.97506    243268.37406     -2970.54106        38.20006  22585899.80306    185719.55206     -2218.25806        37.70006
G12  20110068.58505    -23282.65405       222.08405        34.30005                                                                
G19  24373754.09715    240591.51315     -2835.44315        30.80015                                                                
G24  23546049.60524        -0.00024     -3202.55024        27.80024  23543694.13606    200371.55606     -2392.14306        36.80006
G25  21573300.71106   -210471.07606      2416.12806        36.70006  21570947.34005   -157167.60205      1804.27205        31.50005
G29  23798304.57323         0.00023      2371.05023        21.10023                                                                
R09  22550410.97116    344252.88516     -4266.02816        37.80016
R20  20258622.04424        -0.00024     -2228.75024        27.20024
R21  20494671.73015   -122539.56515      1389.41615        31.60015
E01  25748597.21315    -36059.97215      2153.82215        31.90015  25746685.43706   -140487.25806      1608.23906        36.10006
E13  23343424.97915     40666.40115      -932.45915        30.00015  23341511.40405     56474.15705      -696.32405        34.90005
E15  26590988.23815    118084.54315     -2592.66915        31.90015  26589077.36114    162724.79214     -1937.35614        29.30014
E21  23453347.48124        -0.00024      -138.10024        25.60024  23451429.40905      6012.33305      -103.02805        30.00005
E26  23996281.81624         0.00024      1650.15024        23.80024  23994368.24106   -107104.89506      1231.16106        37.60006
E27  25490721.13715     18365.37515     -2426.54515        33.90015  25488811.15905    153526.36605     -1812.15805        34.40005
> 2021 04 28 22 20 44.4299099  0 17                      
G02  21102535.63507    108976.88807     -1308.50607        41.50007                                                                
G05  23685408.34906   -297165.94806      3441.67706        41.40006                                                                
G06  22588820.00206    246238.82306     -2968.76506        37.60006  22586464.83206    187937.75706     -2216.82206        37.80006
G12  20110024.73605    -23504.60405       223.63205        33.20005                                                                
G19  24374290.34615    243427.06715     -2833.98115        34.70015                                                                
G24  23546663.80025    262318.32825     -3201.47025        31.00025  23544303.23406    202763.57406     -2390.74806        37.40006
G25  21572838.65106   -212886.88406      2417.65106        36.10006  21570487.97805   -158971.58105      1805.35705        31.60005
G29  23797848.50823         0.00023      2367.70023        21.00023                                                                
R09  22551206.54106    348518.62206     -4264.13006        40.70006
R20  20259065.65724        -0.00024     -2227.90024        28.70024
R21  20494393.14305   -123928.19605      1390.84505        32.70005
E01  25748187.91705    -38213.07805      2155.29105        30.80005  25746275.84006   -142095.34406      1609.55406        36.00006
E13  23343599.97824        -0.00024      -930.60024        28.40024  23341688.50206     57170.56806      -695.11906        35.70006
E15  26591479.81824        -0.00024     -2590.45024        28.80024  26589575.23624        -0.00024     -1936.25024        25.20024
E21  23453386.07524        -0.00024      -135.75024        24.50024  23451455.41115      6115.50915      -101.94915        30.10015
E26  23995965.75524         0.00024      1649.15024        29.40024  23994054.27806   -108335.85906      1232.06406        35.90006
E27  25491183.63715     20792.07815     -2425.19715        33.20015  25489273.35905    155338.52205     -1810.81105        34.00005
> 2021 04 28 22 20 45.4299099  0 17                      
G02  21102785.70407    110284.00107     -1307.47507        41.90007                                                                
G05  23684754.54416   -300609.47516      3441.83516        37.10016                                                                
G06  22589378.25715    249205.98615     -2967.65415        34.80015  22587030.28315    190153.49915     -2215.95015        34.70015
G12  20109986.10505    -23729.70805       224.92905        33.50005                                                                
G19  24374816.52424        -0.00024     -2836.05024        27.50024                                                                
G24  23547274.22015    265518.26115     -3200.19815        30.90015  23544912.15516    205153.12116     -2389.46816        39.50016
G25  21572374.91406   -215306.41406      2419.70806        36.70006  21570027.23905   -160778.39405      1807.12005        31.70005
G29  23797424.64423         0.00023      2383.05023        23.10023                                                                
R09  22552005.83016    352781.55516     -4263.88316        39.60016
R20  20259506.69424        -0.00024     -2225.95024        26.30024
R21  20494127.86924         0.00024      1394.90024        27.40024
E01  25747779.34205    -40370.24805      2157.69405        31.70005  25745865.46706   -143706.37806      1611.21606        35.90006
E13  23343779.59625     42528.22525      -929.36925        30.10025  23341864.82205     57864.51905      -693.98705        34.30005
E15  26591975.11725    123271.14225     -2589.07725        32.40025  26590065.73924        -0.00024     -1935.75024        25.40024
E21  23453395.71124        -0.00024      -134.55024        26.80024  23451482.13505      6216.32405      -100.84605        31.30005
E26  23995666.00523         0.00023      1653.65023        22.20023  23993740.13815   -109569.41115      1234.07515        35.10015
E27  25491645.06015     23215.86515     -2423.50915        32.00015  25489734.78205    157148.67305     -1810.48705        30.40005
> 2021 04 28 22 20 46.4299099  0 17                      
G02  21103033.66907    111591.03807     -1303.94907        41.60007                                                                
G05  23684096.23726   -304051.40626      3445.07526        36.30026                                                                
G06  22589950.89816    252173.42416     -2964.47116        37.60016  22587594.52916    192369.47816     -2213.72716        36.70016
G12  20109944.47105    -23955.12905       228.57905        32.10005                                                                
G19  24375361.88425    249091.08525     -2830.95525        33.10025                                                                
G24  23547876.24014    268717.75214     -3197.45214        28.80014  23545520.47116    207542.38516     -2386.67716        35.80016
G25  21571922.86406   -217727.25206      2424.40706        37.10006  21569565.89605   -162586.13605      1810.57705        31.50005
G29  23796948.31124         0.00024      2386.10024        23.70024                                                                
R09  22552808.41115    357046.23515     -4261.94915        33.90015
R20  20259894.06324        -0.00024     -2221.70024        27.00024
R21  20493887.173 5   -126715.706 5      1397.626 5        31.900 5
E01  25747367.16405    -42529.14005      2162.62905        32.20005  25745454.18906   -145318.50206      1615.06606        35.70006
E13  23343955.91124        -0.00024      -925.50024        29.40024  23342042.03605     58558.18805      -691.40605        34.30005
E15  26592467.11415    125860.17115     -2585.94215        32.50015  26590555.33724        -0.00024     -1930.70024        28.70024
E21  23453427.22624        -0.00024      -132.30024        24.20024  23451508.25405      6316.83105       -98.07205        30.00005
E26  23995346.46324         0.00024      1653.35024        24.90024  23993425.39315   -110803.59015      1236.70515        32.40015
E27  25492107.97724        -0.00024     -2421.70024        28.80024  25490194.70114    158961.14114     -1814.33714        27.60014
> 2021 04 28 22 20 47.4299099  0 17                      
G02  21103283.90807    112894.81807     -1306.40007        42.00007                                                                
G05  23683441.70216   -307496.45516      3441.90416        37.90016                                                                
G06  22590516.21916    255137.52816     -2966.95416        38.10016  22588158.65106    194582.93406     -2215.62606        37.50006
G12  20109894.31705    -24184.12505       226.43605        32.00005                                                                
G19  24375914.91315    251921.72015     -2833.11815        32.10015                                                                
G24  23548479.33414    271913.74914     -3196.52414        29.20014  23546129.56106    209928.57606     -2387.77506        38.40006
G25  21571464.39306   -220153.04006      2423.91306        36.70006  21569103.22805   -164397.60005      1810.01205        31.70005
G29  23796539.30624         0.00024      2381.00024        24.40024                                                                
R09  22553615.06516    361307.33016     -4264.14416        37.60016
R20  20260312.48524    165258.30324     -2223.72524        29.20024
R21  20493633.16024         0.00024      1398.30024        27.00024
E01  25746955.46115    -44693.68415      2162.30915        32.40015  25745042.48506   -146934.48306      1614.68006        36.40006
E13  23344129.70325     44382.39625      -927.59425        31.20025  23342217.32705     59249.08705      -692.65505        34.30005
E15  26592961.38315    128445.82315     -2588.40915        32.50015  26591047.209 4    170489.650 4     -1933.113 4        29.400 4
E21  23453458.01624        -0.00024      -131.90024        24.10024  23451533.64915      6414.56015       -99.66215        30.30015
E26  23995018.40223         0.00023      1666.55023        22.00023  23993109.62315   -112041.05015      1235.63215        32.30015
E27  25492567.17024        -0.00024     -2425.25024        28.60024  25490657.49315    160772.43115     -1810.45315        29.90015
> 2021 04 28 22 20 48.4299099  0 17                      
G02  21103532.81807    114203.64807     -1309.02207        41.50007                                                                
G05  23682784.63916   -310935.40316      3430.44816        35.90016                                                                
G06  22591083.80815    258106.53215     -2969.03715        33.90015  22588723.84215    196800.46315     -2217.60115        33.70015
G12  20109854.52715    -24408.22615       224.08715        33.10015                                                                
G19  24376467.21324        -0.00024     -2845.00024        25.30024                                                                
G24  23549089.79424        -0.00024     -3199.25024        28.20024  23546738.22206    212317.86606     -2389.25906        38.70006
G25  21570998.89806   -222575.23006      2422.76106        36.50006  21568642.82905   -166206.38105      1809.19205        30.30005
G29  23796043.83123         0.00023      2393.45023        23.10023                                                                
R09  22554402.10216    365574.18516     -4266.72916        36.60016
R20  20260704.09624        -0.00024     -2228.00024        26.30024
R21  20493364.32924         0.00024      1398.35024        26.20024
E01  25746543.02915    -46854.38715      2161.47215        32.80015  25744631.25206   -148547.95806      1614.07506        36.30006
E13  23344307.26215     45312.24615      -929.91515        30.10015  23342395.48605     59943.61805      -694.51905        34.90005
E15  26593452.52615    131035.36315     -2589.84515        32.10015  26591541.34914    172424.34114     -1934.57514        29.00014
E21  23453479.38424        -0.00024      -136.35024        24.70024  23451558.31415      6515.50615      -100.74015        29.60015
E27  25493025.33625     30489.06925     -2429.34525        30.70025  25491118.65515    162585.53815     -1813.33915        30.40015
E26                                                                  23992795.82315   -113275.73215      1235.18015        29.60015
> 2021 04 28 22 20 49.4299098  0 17                      
G02  21103750.75807    115511.59607     -1306.33507        41.70007                                                                
G05  23682106.20025         0.00025      3440.30025        35.30025                                                                
G06  22591610.53415    261075.30915     -2967.52115        34.40015  22589260.46105    199017.29505     -2215.44605        35.30005
G12  20109778.07115    -24633.89315       227.07615        32.30015                                                                
G19  24377011.92723        -0.00023     -2836.90023        22.80023                                                                
G24  23549673.18124        -0.00024     -3190.35024        28.00024  23547316.81216    214706.14616     -2387.23216        38.00016
G25  21570505.13106   -224999.72306      2426.69806        36.90006  21568151.76005   -168016.90105      1812.27305        30.70005
G29  23795582.44224         0.00024      2385.30024        24.40024                                                                
R09  22555145.57815    369840.35315     -4265.75815        32.50015
R20  20261101.01224        -0.00024     -2221.95024        27.30024
R21  20493050.43724         0.00024      1400.90024        28.60024
E01  25746103.22405    -49017.17605      2165.53005        32.80005  25744190.24905   -150163.36705      1617.16905        35.40005
E13  23344456.55015     46241.27015      -927.47815        30.20015  23342541.17605     60637.26905      -692.27905        34.40005
E15  26593919.29315    133625.35915     -2588.23415        33.00015  26592005.71814    174358.18014     -1933.23114        28.30014
E21  23453473.07923        -0.00023      -131.40023        22.30023  23451554.10815      6615.96615       -99.08315        30.40015
E26  23994368.52523         0.00023      1654.50023        20.50023  23992450.15315   -114511.49515      1237.07915        32.50015
E27  25493462.12415     32919.36015     -2425.18015        31.90015  25491550.64715    164398.27815     -1812.89315        32.20015
> 2021 04 28 22 20 50.4299098  0 17                      
G02  21103995.26407    116816.90707     -1303.54307        42.00007                                                                
G05  23681451.02925   -317767.19225      3443.05325        33.70025                                                                
G06  22592183.91326        -0.00026     -2961.55026        37.20026  22589822.44806    201232.03306     -2213.42206        37.20006
G12  20109738.67425    -24861.87925       229.70225        32.10025                                                                
G19  24377490.27124        -0.00024     -2838.15024        24.80024                                                                
G24  23550290.03024        -0.00024     -3192.50024        25.90024  23547924.96706    217092.70706     -2385.45306        36.10006
G25  21570045.12506   -227428.11406      2430.42506        36.70006  21567690.25515   -169830.34115      1814.79815        31.90015
G29  23795132.32923         0.00023      2392.35023        22.00023                                                                
R09  22555971.98215    374106.11315     -4262.14815        33.80015
R20  20261557.77224        -0.00024     -2216.70024        27.80024
R21  20492812.87724         0.00024      1408.75024        28.20024
E01  25745693.58305    -51184.53705      2169.44405        33.10005  25743777.01006   -151781.89806      1620.18406        35.70006
E13  23344635.10215     47167.29115      -924.23915        29.80015  23342717.02905     61328.69805      -690.18005        34.60005
E15  26594417.72424        -0.00024     -2586.30024        25.20024  26592498.45323        -0.00023     -1930.15023        22.80023
E21  23453491.84224        -0.00024      -128.20024        25.70024  23451577.96704      6714.16104       -97.21004        28.60004
E26  23994045.52424         0.00024      1657.00024        24.30024  23992134.64715   -115749.52015      1239.21715        33.40015
E27  25493926.97824        -0.00024     -2427.40024        26.90024  25492013.40315    166211.35515     -1812.31215        30.10015
> 2021 04 28 22 20 51.4299098  0 17                      
G02  21104247.50207    118120.23307     -1307.42907        41.90007                                                                
G05  23680798.19315   -321210.13015      3438.82615        34.90015                                                                
G06  22592737.74226    267011.11926     -2967.30426        36.90026  22590386.76916    203445.02616     -2215.72216        36.00016
G12  20109692.61825    -25091.83125       225.67025        33.30025                                                                
G19  24378041.70224        -0.00024     -2840.35024        24.80024                                                                
G24  23550890.02725    284702.64825     -3196.94625        29.90025  23548532.45906    219477.67206     -2387.63906        37.10006
G25  21569587.15406   -229859.29906      2427.27806        37.40006  21567225.38905   -171645.84005      1812.52205        31.00005
G29  23794690.24723         0.00023      2380.75023        22.90023                                                                
R09  22556772.84015    378366.75815     -4266.64315        32.80015
R20  20261946.41524        -0.00024     -2224.35024        28.40024
R21  20492526.98725   -133708.67025      1398.55925        32.20025
E01  25745273.38705    -53354.95305      2166.53305        31.70005  25743364.00905   -153402.61605      1617.74605        35.30005
E13  23344809.99315     48090.93315      -927.52515        30.60015  23342892.82005     62018.48605      -692.69305        34.10005
E15  26594900.20224        -0.00024     -2589.10024        24.70024  26592989.02523        -0.00023     -1935.40023        23.40023
E21  23453519.53524        -0.00024      -134.60024        25.80024  23451603.26205      6810.71205       -99.87905        30.00005
E26  23993735.65124         0.00024      1655.80024        27.60024  23991818.77806   -116989.18406      1236.70106        36.30006
E27  25494394.46724        -0.00024     -2422.05024        26.70024  25492476.39524        -0.00024     -1815.60024        25.70024
> 2021 04 28 22 20 52.4299098  0 17                      
G02  21104495.80006    119430.55206     -1307.06306        40.80006                                                                
G05  23680142.61726   -324646.86826      3439.67226        38.40026                                                                
G06  22593307.41726    269981.35026     -2967.42226        38.40026  22590951.64806    205663.09806     -2215.90506        37.00006
G12  20109655.21425    -25314.59625       225.96225        34.00025                                                                
G19  24378560.11224        -0.00024     -2838.95024        24.00024                                                                
G24  23551510.66724        -0.00024     -3196.40024        24.50024  23549141.70715    221868.49515     -2387.02615        32.60015
G25  21569121.64606   -232283.66306      2427.65206        37.80006  21566765.27704   -173456.18004      1812.54404        29.30004
G29  23794246.62424         0.00024      2443.95024        23.70024                                                                
R09  22557562.86215    382639.97715     -4269.20415        32.00015
R20  20262372.79024        -0.00024     -2221.40024        28.30024
R21  20492280.02805   -135104.02605      1398.84505        32.50005
E01  25744866.93805    -55518.64305      2166.88205        32.80005  25742952.46306   -155018.39906      1618.24606        36.00006
E13  23344982.74315     49021.38315      -927.71515        30.20015  23343070.06705     62713.39705      -692.72005        33.90005
E15  26595386.23624        -0.00024     -2584.15024        29.20024  26593479.85524        -0.00024     -1929.40024        26.30024
E21  23453542.68924        -0.00024      -133.55024        26.80024  23451629.71305      6912.71105       -99.94205        29.50005
E26  23993419.73924         0.00024      1653.50024        29.00024  23991504.96515   -118223.65715      1236.44615        33.70015
E27  25494855.61724        -0.00024     -2428.25024        28.00024  25492936.346 5    169828.394 5     -1814.708 5        29.700 5
> 2021 04 28 22 20 53.4299098  0 17                      
G02  21104745.89706    120734.59006     -1305.55706        41.20006                                                                
G05  23679486.74116   -328089.45116      3441.00816        38.60016                                                                
G06  22593864.50125    272945.69525     -2965.75025        35.40025  22591515.62705    207876.68105     -2214.62705        35.00005
G12  20109608.51615    -25543.75315       227.39615        33.40015                                                                
G19  24379127.98923        -0.00023     -2832.65023        23.30023                                                                
G24  23552101.92724        -0.00024     -3200.50024        26.60024  23549748.55715    224251.30115     -2385.16715        34.90015
G25  21568659.13606   -234715.19506      2430.91706        36.60006  21566301.86805   -175271.95205      1815.29705        30.00005
G29  23793740.94424         0.00024      2393.05024        24.60024                                                                
R09  22558361.87916    386903.12316     -4265.36816        39.80016
R20  20262770.98424        -0.00024     -2218.85024        28.70024
R21  20492020.47824         0.00024      1404.20024        25.20024
E01  25744454.79305    -57689.69905      2170.64005        34.20005  25742539.41906   -156639.61306      1620.91106        35.90006
E13  23345155.49325        -0.00025      -925.00025        29.50025  23343246.41505     63403.51605      -690.96305        34.90005
E15  26595885.16025      4194.50025     -2585.57625        30.70025  26593973.68324        -0.00024     -1930.40024        29.00024
E21  23453564.34324        -0.00024      -128.95024        27.00024  23451655.26514      7009.99214       -99.53014        29.30014
E27  25495306.27525      3825.81925     -2427.11925        31.20025  25493398.39615    171640.28915     -1812.48415        33.10015
E26                                                                  23991186.95523         0.00023      1241.05023        22.90023
> 2021 04 28 22 20 54.4299098  0 16                      
G02  21104992.13907    122040.22507     -1302.95807        41.60007                                                                
G05  23678833.60506   -331530.61206      3442.92106        40.00006                                                                
G06  22594433.62015    275911.13615     -2962.58515        34.50015  22592080.54906    210091.60906     -2212.93006        35.60006
G12  20109567.55705    -25771.11805       230.43405        33.90005                                                                
G19  24379674.02423        -0.00023     -2830.15023        23.20023                                                                
G24  23552714.216 5    294307.278 5     -3191.907 5        31.400 5  23550356.64816    226636.62916     -2383.49816        38.60016
G25  21568195.76906   -237146.73406      2434.62406        36.30006  21565841.49905   -177087.68905      1818.12905        31.80005
G29  23793329.74123         0.00023      2394.50023        21.70023                                                                
R09  22559169.63316    391168.82816     -4263.59916        40.10016
R20  20263172.51824        -0.00024     -2216.85024        27.40024
E01  25744042.39115    -59861.55515      2174.61315        32.50015  25742125.81806   -158261.11106      1623.98306        35.70006
E13  23345336.98024        -0.00024      -922.55024        29.20024  23343422.20606     64094.55906      -689.10906        35.60006
E15  26596372.73524        -0.00024     -2585.20024        25.80024  26594466.95424        -0.00024     -1933.00024        23.50024
E21  23453592.03724        -0.00024      -127.70024        25.60024  23451679.36105      7108.78305       -96.09705        29.70005
E26  23992782.86324         0.00024      1663.05024        23.60024  23990872.585 5   -120699.768 5      1241.812 5        34.500 5
E27  25495767.76815      6253.87215     -2425.79515        32.20015  25493859.58905    173453.38305     -1811.53905        34.90005
> 2021 04 28 22 20 55.4299098  0 16                      
G02  21105238.08006    123342.56106     -1305.29306        41.30006                                                                
G05  23678176.87116   -334973.07016      3439.03816        36.80016                                                                
G06  22594999.43926    278873.30226     -2965.08126        37.80026  22592643.67006    212303.54006     -2214.19906        37.50006
G12  20109514.30505    -26002.34305       228.31005        32.30005                                                                
G24  23553323.50515    297498.52815     -3194.18915        30.90015  23550964.43906    229019.67006     -2385.22206        37.80006
G25  21567732.70106   -239583.02406      2434.02006        36.80006  21565377.83205   -178907.03705      1817.58205        32.40005
G29  23792866.07423         0.00023      2390.00023        22.10023                                                                
R09  22559965.99316    395432.68116     -4267.87016        40.30016
R20  20263589.34124    183029.77924     -2218.84324        29.20024
R21  20491498.46324         0.00024      1404.55024        25.10024
E01  25743625.49105    -62037.38005      2174.16005        32.50005  25741711.91606   -159886.26406      1623.60006        36.30006
E13  23345513.07024        -0.00024      -924.65024        29.40024  23343598.59505     64782.87405      -690.40105        35.40005
E15  26596869.90224        -0.00024     -2585.90024        28.60024  26594955.427 4    185964.490 4     -1930.529 4        25.100 4
E21  23453620.92824        -0.00024      -131.05024        26.20024  23451703.15604      7204.00804       -97.64104        29.10004
E26  23992466.39324         0.00024      1659.50024        27.30024  23990556.71506   -121941.93906      1239.98206        35.60006
E27  25496232.55705      8679.98005     -2428.95305        33.70005  25494321.38106    175264.81206     -1814.03006        36.00006
> 2021 04 28 22 20 56.4299098  0 17                      
G02  21105488.73907    124649.41407     -1306.10707        42.00007                                                                
G05  23677530.55215   -338409.98515      3436.46615        34.30015                                                                
G06  22595560.98415    281839.26615     -2965.53515        33.20015  22593208.51215    214519.18415     -2215.08815        34.40015
G12  20109477.16405    -26229.25105       228.00605        33.40005                                                                
G19  24380733.63424        -0.00024     -2836.40024        26.40024                                                                
G24  23553928.81915    300694.37515     -3195.00615        31.30015  23551572.75006    231406.18006     -2385.90606        35.90006
G25  21567268.95506   -242016.29406      2435.08606        36.40006  21564913.48605   -180724.12105      1818.40705        32.30005
G29  23792412.22124         0.00024      2397.75024        23.70024                                                                
R09  22560777.56415    399703.14615     -4270.17215        33.90015
R20  20264006.98504    185249.96904     -2218.75204        29.40004
R21  20491228.683 5   -140715.696 5      1404.814 5        31.400 5
E01  25743212.41015    -64211.02515      2175.47415        32.40015  25741297.63506   -161509.42706      1624.65306        35.60006
E13  23345684.88425        -0.00025      -925.50025        29.70025  23343773.40705     65474.40305      -690.83405        34.40005
E15  26597357.99724        -0.00024     -2587.00024        23.90024                                                                
E21  23453641.94724        -0.00024      -131.40024        25.10024  23451728.07105      7302.83305       -98.03605        30.60005
E26  23992147.14724         0.00024      1659.85024        26.10024  23990240.46706   -123181.06406      1240.17806        36.50006
E27  25496692.77215     11111.35215     -2431.55015        31.90015  25494783.99314    177080.74814     -1815.93414        29.30014
> 2021 04 28 22 20 57.4299098  0 17                      
G02  21105739.62807    125954.93807     -1305.65507        41.60007                                                                
G05  23676867.67316   -341846.02516      3435.07416        35.50016                                                                
G06  22596127.55426    284805.07626     -2966.12426        37.10026  22593773.58406    216733.88706     -2214.90006        36.70006
G12  20109440.55105    -26457.98205       228.93505        33.70005                                                                
G19  24381275.32226    280332.75126     -2838.40926        37.60026                                                                
G24  23554533.16424        -0.00024     -3186.60024        25.80024  23552180.09315    233789.93815     -2383.54715        31.70015
G25  21566804.53906   -244453.60506      2438.86006        36.70006  21564450.26905   -182544.13805      1821.30605        31.30005
G29  23791937.61224         0.00024      2397.50024        25.50024                                                                
R09  22561565.98016    403972.93916     -4271.33816        36.20016
R20  20264408.07024        -0.00024     -2217.60024        28.20024
R21  20490954.93515   -142122.39015      1407.55915        31.70015
E01  25742799.25815    -66389.43315      2179.73415        33.40015  25740884.18405   -163135.85405      1627.78905        35.40005
E13  23345864.12225     53643.07125      -924.01125        30.40025  23343949.64705     66164.53705      -690.05005        34.90005
E15  26597849.02024        -0.00024     -2585.95024        26.80024                                                                
E21  23453670.98924        -0.00024      -130.15024        25.40024  23451753.51605      7399.99905       -96.88105        30.50005
E26  23991845.51824         0.00024      1661.05024        25.40024  23989925.04815   -124422.29915      1241.69815        34.60015
E27  25497155.61424        -0.00024     -2433.00024        28.10024  25495246.53615    178896.59415     -1816.87115        30.80015
> 2021 04 28 22 20 58.4299098  0 17                      
G02  21105983.99106    127259.13006     -1301.85506        41.40006                                                                
G05  23676216.25615   -345281.68215      3438.02215        33.00015                                                                
G06  22596693.29426    287770.12726     -2962.91626        38.10026  22594337.82506    218948.03406     -2212.49706        38.50006
G12  20109389.01905    -26688.66905       233.33405        32.90005                                                                
G19  24381812.28226    283170.69826     -2836.09426        39.50026                                                                
G24  23555136.37824        -0.00024     -3192.25024        25.60024  23552787.50416    236173.15516     -2381.05516        36.30016
G25  21566335.69606   -246895.57106      2445.22406        36.90006  21563984.42405   -184367.67905      1825.95705        30.90005
G29  23791489.75424         0.00024      2404.50024        27.10024                                                                
R09  22562364.65924        -0.00024     -4270.80024        28.50024
R20  20264850.89524        -0.00024     -2211.40024        28.40024
R21  20490699.84315   -143531.39015      1412.05515        29.90015
E01  25742381.38005    -68571.89105      2186.50405        34.00005  25740468.40406   -164765.98006      1632.89206        36.00006
E13  23346039.83215     54565.96415      -919.75915        31.10015  23344125.35805     66853.26405      -686.79205        34.10005
E15  26598344.90825      1650.66425     -2582.74625        29.90025  26596432.532 4    191759.281 4     -1928.232 4        27.900 4
E21  23453689.00824        -0.00024      -126.50024        25.90024  23451777.83115      7495.48715       -93.69215        30.80015
E26  23991511.28223         0.00023      1666.20023        22.60023  23989606.40015   -125666.13615      1247.46215        31.40015
E27  25497620.624 5     15978.131 5     -2431.169 5        33.500 5  25495710.34605    180713.23805     -1815.33105        35.30005
> 2021 04 28 22 20 59.4299097  0 17                      
G02  21106202.80906    128562.80906     -1307.48906        41.20006                                                                
G05  23675529.10226   -348717.43326      3430.85426        38.20026                                                                
G06  22597222.09826    290734.77026     -2968.56426        37.20026  22594872.02506    221161.87806     -2216.72006        38.10006
G12  20109325.43305    -26920.35105       228.07705        33.70005                                                                
G19  24382325.49726    286009.26026     -2843.29726        39.20026                                                                
G24  23555732.93524        -0.00024     -3185.15024        25.20024  23553365.17415    238555.30715     -2384.81115        34.90015
G25  21565838.91006   -249340.70306      2442.88006        37.20006  21563489.73605   -186193.65905      1824.30705        30.20005
G29  23791023.84624         0.00024      2403.00024        24.00024                                                                
R09  22563133.89725    412512.32325     -4275.88925        33.40025
R20  20265210.91624        -0.00024     -2215.60024        27.30024
R21  20490411.71224         0.00024      1413.90024        27.80024
E01  25741932.86005    -70758.53105      2184.53605        33.90005  25740022.58206   -166398.82206      1631.32006        36.40006
E13  23346181.90424        -0.00024      -925.20024        29.40024  23344271.62605     67541.23605      -690.59105        34.70005
E15  26598804.76005      4235.65205     -2588.30905        35.00005  26596894.48205    193689.14805     -1932.92205        31.20005
E21  23453681.18424        -0.00024      -131.00024        25.60024  23451771.20605      7590.24305       -97.26905        29.60005
E27  25498052.89515     18411.36915     -2438.22015        32.30015  25496142.91705    182530.50405     -1820.80905        34.10005
E26                                                                  23989261.90915   -126913.73315      1244.67315        33.70015
> 2021 04 28 22 21 00.4299097  0 16                      
G02  21106452.47106    129871.40906     -1308.14906        40.90006                                                                
G05  23674880.28506   -352145.66606      3428.14606        40.10006                                                                
G06  22597791.03906    293705.14406     -2969.28306        37.50006  22595436.16906    223379.64606     -2217.33006        37.50006
G12  20109272.90415    -27147.57615       227.83815        32.70015                                                                
G19  24382867.45606    288854.51106     -2845.35206        36.60006                                                                
G24  23556336.35224        -0.00024     -3190.35024        24.60024  23553972.78815    240941.02215     -2385.38615        34.30015
G25  21565384.65906   -251783.86706      2444.77106        37.40006  21563024.39305   -188018.01205      1825.55705        31.10005
R09  22563927.68206    416790.21806     -4278.39206        38.20006
R20  20265656.34224        -0.00024     -2218.80024        27.10024
R21  20490136.438 5   -146350.967 5      1409.601 5        31.100 5
E01  25741520.58005    -72943.39705      2186.65405        33.80005  25739606.70506   -168030.38306      1632.98306        36.10006
E13  23346364.11225     56412.28425      -925.18125        30.10025  23344446.94005     68232.58105      -690.79605        35.00005
E15  26599299.05205      6825.14605     -2588.80405        34.80005  26597386.67605    195622.86805     -1933.21605        30.70005
E21  23453721.29125        -0.00025      -130.70025        29.50025  23451796.02304      7688.23704       -97.58904        29.20004
E26  23990851.94323         0.00023      1664.20023        22.00023  23988943.46405   -128156.29605      1243.28205        33.40005
E27  25498515.10905     20852.30205     -2441.16905        33.70005  25496607.53005    184352.99005     -1822.94105        35.20005
> 2021 04 28 22 21 01.4299097  0 16                      
G02  21106699.18407    131179.24607     -1307.76307        41.50007                                                                
G05  23674225.52207   -355572.88907      3426.24007        41.80007                                                                
G06  22598355.23206    296674.21806     -2969.21306        38.20006  22596001.56106    225596.80106     -2217.21606        38.50006
G12  20109228.51805    -27375.92505       228.82305        32.70005                                                                
G19  24383409.16415    291699.72015     -2846.17115        31.90015                                                                
G24  23556941.01624        -0.00024     -3189.25024        27.70024  23554579.85106    243326.00906     -2384.64006        36.10006
G25  21564913.06906   -254230.50806      2448.53206        37.10006  21562560.59705   -189845.05305      1828.42605        32.00005
R09  22564733.20806    421069.56006     -4280.25106        38.80006
R20  20266050.25324    196332.53524     -2215.64924        29.10024
R21  20489885.49515   -147765.05515      1415.43315        32.20015
E01  25741104.15205    -75132.19005      2190.88305        33.80005  25739189.97706   -169664.89606      1636.04106        36.20006
E13  23346532.27915     57336.93615      -924.04815        31.30015  23344623.20105     68922.99205      -690.10305        34.60005
E15  26599789.79606      9413.77706     -2588.68606        35.50006  26597878.91905    197555.92805     -1933.20405        31.90005
E21  23453740.16124        -0.00024      -129.70024        26.90024  23451820.59005      7785.39605       -96.77505        30.40005
E26  23990540.14224         0.00024      1668.35024        27.10024  23988625.36806   -129400.59206      1245.10706        36.10006
E27  25498983.66805     23294.42105     -2443.17205        34.80005  25497072.19206    186176.66806     -1824.56206        36.80006
> 2021 04 28 22 21 02.4299097  0 16                      
G02  21106948.05107    132487.23907     -1306.29707        41.80007                                                                
G05  23673568.71706   -358997.37306      3424.18106        40.30006                                                                
G06  22598918.58206    299643.70106     -2968.14706        38.30006  22596565.81006    227814.29306     -2216.51606        37.10006
G12  20109183.58905    -27604.87005       231.00805        33.90005                                                                
G19  24383960.52325    294547.90425     -2847.72625        31.80025                                                                
G24  23557556.23024    319845.78924     -3192.24824        28.70024  23555186.67115    245710.47315     -2380.17815        34.80015
G25  21564444.53306   -256681.11606      2454.17606        37.20006  21562092.36105   -191675.08905      1832.44205        32.90005
R09  22565541.48806    425351.55406     -4281.97206        40.00006
R20  20266475.09924        -0.00024     -2211.45024        28.30024
R21  20489620.51805   -149182.19405      1420.55505        32.90005
E01  25740682.68315    -77326.00415      2197.19715        32.50015  25738773.30506   -171302.68806      1640.62106        36.20006
E13  23346711.59505     58261.33005      -922.33205        32.10005  23344798.32005     69612.96205      -688.60205        34.10005
E15  26600283.29406     12002.72506     -2587.69006        35.60006  26598370.31905    199489.29805     -1932.48605        31.30005
E21  23453767.78224        -0.00024      -126.80024        27.10024  23451845.81205      7882.01805       -95.43905        29.70005
E26  23990225.70024         0.00024      1669.90024        28.70024  23988308.82706   -130646.13106      1247.29806        36.30006
E27  25499448.68605     25739.45005     -2445.21105        34.70005  25497536.61006    188002.55006     -1825.96906        36.40006
> 2021 04 28 22 21 03.4299097  0 16                      
G02  21107194.57706    133790.60906     -1304.75706        41.20006                                                                
G05  23672924.85906   -362423.31306      3423.36206        39.40006                                                                
G06  22599478.99006    302609.08206     -2966.80206        37.70006  22597130.71606    230028.71606     -2215.48306        37.30006
G12  20109133.32105    -27839.23505       233.55805        34.30005                                                                
G19  24384491.25215    297394.01715     -2848.61915        33.10015                                                                
G24  23558174.49924        -0.00024     -3192.20024        25.70024  23555795.04706    248088.52206     -2381.33506        37.70006
G25  21563983.84906   -259140.79006      2460.93006        37.90006  21561624.18205   -193511.85605      1837.85705        31.30005
R09  22566341.43106    429632.00106     -4282.77706        36.60006
R20  20266876.91724        -0.00024     -2210.15024        28.50024
R21  20489344.20615   -150607.73615      1426.24015        33.10015
E01  25740267.86805    -79528.28105      2204.34505        34.40005  25738353.39306   -172947.68406      1646.07706        36.40006
E13  23346889.76915     59180.28715      -919.49815        32.20015  23344973.79505     70299.11405      -686.70205        34.20005
E15  26600772.95215     14587.81615     -2586.42115        34.00015  26598865.07305    201419.63605     -1931.42705        31.90005
E21  23453790.96324        -0.00024      -124.15024        26.00024  23451868.99305      7974.72505       -93.13105        29.60005
E26  23989905.31824         0.00024      1675.15024        27.60024  23987990.54406   -131896.82506      1250.76106        36.70006
E27  25499913.46105     28183.38105     -2446.72805        34.70005  25498002.88406    189827.50506     -1827.06406        37.20006
> 2021 04 28 22 21 04.4299097  0 16                      
G02  21107449.27406    135099.53706     -1310.74306        41.20006                                                                
G05  23672271.78407   -365840.72707      3414.39007        41.50007                                                                
G06  22600052.06606    305580.40006     -2973.36706        36.90006  22597695.69806    232247.58806     -2220.28206        36.90006
G12  20109104.41315    -28068.90815       227.99215        34.00015                                                                
G19  24385047.54025        -0.00025     -2859.85025        30.50025                                                                
G24  23558759.56724        -0.00024     -3191.40024        26.40024  23556402.89806    250472.98606     -2385.73006        36.40006
G25  21563509.45006   -261599.50306      2458.48106        37.90006  21561156.97805   -195347.85405      1835.85905        31.80005
R09  22567144.74706    433920.71906     -4291.71706        41.20006
R20  20267289.90424        -0.00024     -2215.40024        27.90024
R21  20489091.95305   -152031.32905      1423.10405        33.60005
E01  25739846.83205    -81730.73005      2202.42705        33.80005  25737934.75506   -174592.32706      1644.64106        37.20006
E13  23347062.02215     60103.75215      -925.08915        31.50015  23345149.64605     70988.81105      -690.88505        34.60005
E15  26601268.68215     17178.28615     -2592.89615        29.80015  26599359.00414    203354.53014     -1936.19614        27.30014
E21  23453811.52124        -0.00024      -130.40024        27.40024  23451892.84905      8070.72505       -97.32605        29.80005
E26  23989586.51224         0.00024      1670.80024        28.10024  23987672.33706   -133145.16506      1247.43106        36.60006
E27  25500381.61005     30635.93505     -2455.55205        35.20005  25498470.43306    191658.94406     -1833.64806        37.20006
> 2021 04 28 22 21 05.4299097  0 17                      
G02  21107694.90007    136410.83207     -1311.03807        42.10007                                                                
G05  23671619.53206   -369252.79206      3410.35406        41.20006                                                                
G06  22600618.17006    308554.51606     -2974.13806        38.80006  22598261.20206    234468.45706     -2220.89706        37.00006
G12  20109058.94125    -28296.93225       228.89425        34.20025                                                                
G19  24385578.86825    303114.01625     -2861.66025        34.00025                                                                
G24  23559388.32824        -0.00024     -3193.65024        27.50024  23557010.37406    252858.76306     -2385.36206        38.70006
G25  21563042.76906   -264060.29906      2463.82106        37.00006  21560687.59905   -197185.49505      1839.88205        31.30005
G29  23788239.99724         0.00024      2432.20024        28.10024                                                                
R09  22567946.48806    438214.81106     -4295.70106        39.40006
R20  20267733.39324        -0.00024     -2214.15024        27.80024
R21  20488822.83615   -153456.21115      1427.76415        33.10015
E01  25739428.11705    -83935.58605      2208.23705        34.20005  25737514.54206   -176238.87906      1649.12106        36.90006
E13  23347237.19705     61028.99105      -924.62305        32.00005  23345324.82105     71679.73305      -690.50405        35.30005
E15  26601767.33224        -0.00024     -2593.25024        28.50024  26599853.15814    205291.39814     -1936.62014        23.70014
E21  23453837.09924        -0.00024      -130.40024        27.40024  23451917.82805      8167.91405       -96.65705        30.60005
E26  23989262.23224         0.00024      1673.00024        26.20024  23987353.15405   -134393.34605      1249.52105        33.80005
E27  25500848.18315     33093.48515     -2459.80615        33.80015  25498937.30606    193494.51506     -1836.96606        35.90006
> 2021 04 28 22 21 06.4299097  0 17                      
G02  21107947.73907    137722.14007     -1311.09207        42.20007                                                                
G05  23670980.48906   -372660.86406      3406.74506        36.70006                                                                
G06  22601187.59106    311529.20606     -2974.68906        39.50006  22598827.92506    236689.85406     -2221.54006        37.10006
G12  20109010.19005    -28525.97205       229.73905        33.10005                                                                
G19  24386122.20606    305977.53606     -2864.34706        36.90006                                                                
G24  23559970.040 4    332613.795 4     -3193.725 4        29.100 4  23557618.46806    255244.05506     -2385.05706        38.30006
G25  21562572.20906   -266526.65906      2468.75306        37.10006  21560219.73805   -199027.26005      1843.31905        30.10005
G29  23787780.830 5     -3525.000 5      2432.904 5        31.900 5                                                                
R09  22568750.04706    442512.44806     -4298.83806        40.60006
R20  20268122.33824        -0.00024     -2212.15024        26.80024
R21  20488542.94415   -154885.95015      1431.21315        31.10015
E01  25739010.32205    -86146.81705      2213.44405        35.20005  25737093.74806   -177890.05106      1652.97206        35.50006
E13  23347419.88505     61953.43205      -924.37805        33.50005  23345500.91405     72369.99805      -690.06105        34.30005
E15  26602258.80725        -0.00025     -2594.30025        29.60025  26600344.03314    207228.80114     -1937.52314        24.40014
E21  23453857.30024        -0.00024      -127.50024        26.80024  23451943.42505      8264.21205       -96.05905        31.10005
E26  23988956.55924         0.00024      1676.15024        27.10024  23987035.48806   -135643.73006      1251.04906        36.70006
E27  25501316.87306     35556.20606     -2463.98706        36.10006  25499405.09705    195333.10705     -1839.89105        33.80005
> 2021 04 28 22 21 07.4299097  0 17                      
G02  21108196.07207    139030.12807     -1307.16207        41.80007                                                                
G05  23670322.84906   -376069.37406      3408.33806        36.40006                                                                
G06  22601748.90706    314501.03706     -2971.04106        38.60006  22599394.33706    238909.04606     -2218.58406        38.50006
G12  20108970.12215    -28759.32815       234.41615        30.50015                                                                
G19  24386676.92716    308839.95316     -2862.13816        36.30016                                                                
G24  23560571.82805    335804.07705     -3189.02605        29.80005  23558225.95206    257626.38706     -2381.36206        38.00006
G25  21562105.83706   -269000.74806      2476.70206        36.90006  21559749.16905   -200874.73005      1849.51705        31.90005
G29  23787324.95005     -5963.88305      2441.85005        30.80005                                                                
R09  22569560.19106    446809.60306     -4297.20106        37.60006
R20  20268562.83824        -0.00024     -2205.20024        28.50024
R21  20488275.63415   -156322.10715      1438.88815        34.80015
E01  25738585.02105    -88366.10005      2222.18105        34.00005  25736671.44506   -179547.39706      1659.39806        35.90006
E13  23347599.86505     62873.94505      -919.26705        32.20005  23345676.69705     73057.36605      -686.45805        33.90005
E15  26602750.571 5     24958.583 5     -2590.497 5        30.200 5  26600838.19504    209164.05904     -1934.32704        25.80004
E21  23453890.98124        -0.00024      -123.35024        28.80024  23451966.61405      8357.51305       -92.30805        30.40005
E26  23988630.48924         0.00024      1682.35024        29.10024  23986714.81506   -136898.26206      1256.07806        35.60006
E27  25501786.45305     38018.27205     -2462.08305        35.40005  25499875.27605    197171.60605     -1838.66305        35.10005
> 2021 04 28 22 21 08.4299097  0 17                      
G02  21108445.70107    140341.11207     -1313.56607        42.10007                                                                
G05  23669668.60405   -379473.03105      3400.51305        33.60005                                                                
G06  22602316.01606    317476.09006     -2977.63006        37.50006  22599958.14905    241130.63505     -2223.57705        35.40005
G12  20108923.55625    -28990.08925       228.42125        32.10025                                                                
G19  24387206.86225    311706.53825     -2869.62725        35.20025                                                                
G24  23561208.48914    338996.64114     -3194.94714        29.20014  23558832.33406    260010.49306     -2385.94006        36.80006
G25  21561635.06506   -271474.94006      2472.55806        36.90006  21559279.29605   -202722.41705      1846.43905        31.70005
G29  23786854.47805     -8403.55905      2438.41205        31.20005                                                                
R09  22570360.53906    451111.48806     -4305.06106        36.70006
R20  20268938.08024        -0.00024     -2212.05024        27.70024
R21  20488019.21405   -157757.79705      1434.42905        34.10005
E01  25738165.51315    -90586.53315      2218.37615        33.40015  25736249.53906   -181205.08306      1656.53806        36.70006
E13  23347773.94715     63796.78315      -925.20315        32.50015  23345853.17605     73746.52305      -690.94805        34.80005
E15  26603255.92305     27553.36105     -2597.38305        33.30005                                                                
E21  23453908.27124        -0.00024      -129.90024        29.40024  23451989.89905      8452.52805       -96.89105        30.30005
E26  23988311.71224         0.00024      1676.05024        27.50024  23986396.63706   -138151.79106      1252.06206        37.70006
E27  25502256.13006     40485.21806     -2470.14806        37.90006  25500343.75405    199013.87005     -1844.67305        34.90005
> 2021 04 28 22 21 09.4299097  0 17                      
G02  21108696.76907    141652.71607     -1308.16407        43.60007                                                                
G05  23669027.48905   -382875.31105      3406.06005        33.60005                                                                
G06  22602880.96706    320451.90106     -2972.33006        40.10006  22600523.99906    243352.82006     -2219.57006        35.50006
G12  20108885.62425    -29220.39625       233.71425        31.60025                                                                
G19  24387764.01826    314574.30226     -2864.32026        38.40026                                                                
G24  23561795.62415    342189.47315     -3189.20515        30.90015  23559439.25506    262394.74206     -2381.54106        37.00006
G25  21561163.03306   -273949.88106      2478.34606        38.70006  21558806.96405   -204570.56005      1850.73105        31.50005
G29  23786392.33905    -10844.54605      2444.66705        34.30005                                                                
R09  22571161.42606    455414.92906     -4299.73606        37.00006
R20  20269363.92724    214021.40324     -2205.90124        29.00024
R21  20487743.84605   -159194.55805      1440.08605        33.70005
E01  25737743.84715    -92807.48215      2224.23815        32.50015  25735827.57306   -182863.56606      1661.04006        37.20006
E13  23347941.97205     64720.06605      -919.78005        32.90005  23346026.59805     74435.98305      -686.79505        33.60005
E15  26603736.33205     30148.75905     -2591.47205        33.70005                                                                
E21  23453931.49724        -0.00024      -124.85024        28.60024  23452015.82305      8547.82105       -92.77505        31.30005
E26  23987993.17424         0.00024      1682.30024        29.30024  23986076.60106   -139405.47106      1256.25706        37.60006
E27  25502723.34806     42953.74606     -2464.88306        38.40006  25500813.07005    200857.27005     -1840.65905        35.10005
> 2021 04 28 22 21 10.4299097  0 17                      
G02  21108945.95307    142962.68407     -1310.91007        43.30007                                                                
G05  23668374.89705   -386280.08105      3403.86505        33.50005                                                                
G06  22603444.63306    323425.73606     -2974.73306        40.90006  22601090.36305    245573.54605     -2221.53105        34.50005
G12  20108840.11225    -29452.01625       230.66425        31.70025                                                                
G19  24388310.59626    317439.79026     -2865.92626        36.10026                                                                
G24  23562401.26124        -0.00024     -3192.60024        27.70024  23560047.59006    264777.46906     -2383.64206        37.90006
G25  21560697.51206   -276426.18806      2474.94306        38.60006  21558335.14705   -206419.75905      1847.92705        32.00005
G29  23785918.12305    -13287.13505      2441.30405        33.70005                                                                
R09  22571974.51906    459716.09206     -4301.97906        37.30006
R20  20269789.38924        -0.00024     -2209.05024        28.40024
R21  20487481.58405   -160632.58905      1436.86805        32.70005
E01  25737319.69605    -95029.20605      2220.85505        34.10005  25735404.02206   -184523.10906      1658.50506        37.20006
E13  23348122.80305     65641.56705      -922.78105        32.90005  23346200.83305     75124.13805      -689.02405        31.90005
E15  26604230.74605     32741.96505     -2594.14505        32.50005  26602323.46724        -0.00024     -1936.25024        24.10024
E21  23453958.534 5       573.209 5      -127.009 5        32.000 5  23452039.26305      8641.87505       -95.04505        30.80005
E26  23987667.65525     -2635.64325      1679.02825        30.30025  23985757.37806   -140660.29906      1253.93706        37.50006
E27  25503192.87905     45420.07605     -2467.20305        34.00005  25501282.30205    202698.96805     -1842.46205        35.30005
> 2021 04 28 22 21 11.4299097  0 17                      
G02  21109191.46607    144270.85907     -1309.86007        42.30007                                                                
G05  23667736.02205   -389687.06305      3405.58505        34.80005                                                                
G06  22604011.52306    326397.64206     -2973.42206        40.50006  22601656.95306    247792.82906     -2220.27506        36.80006
G12  20108788.23025    -29685.31625       231.52125        32.90025                                                                
G19  24388866.09426    320302.78926     -2864.68026        38.20026                                                                
G24  23563020.31525    348570.09525     -3190.06225        32.80025  23560653.75406    267158.79406     -2382.30906        37.40006
G25  21560222.02406   -278903.98406      2476.30706        38.90006  21557865.65505   -208270.03105      1849.31505        32.70005
G29  23785470.21605    -15731.33505      2442.84105        32.50005                                                                
R09  22572771.65006    464015.07906     -4300.48206        38.20006
R20  20270180.30124    218435.30724     -2207.64424        29.10024
R21  20487192.26705   -162072.13705      1437.86905        33.20005
E01  25736895.47305    -97253.23505      2222.63305        33.30005  25734980.69806   -186183.84906      1659.72306        36.80006
E13  23348291.26905     66561.12705      -920.94005        32.30005  23346377.09405     75810.83105      -687.84105        33.00005
E15  26604724.18824        -0.00024     -2591.15024        26.50024  26602810.31223        -0.00023     -1935.75023        22.40023
E21  23453982.80015       696.92415      -126.04615        31.90015  23452061.73005      8734.69405       -93.83805        30.40005
E26  23987356.45315     -4317.80515      1680.73315        32.20015  23985435.98306   -141916.45106      1254.99106        35.90006
E27  25503665.03524        -0.00024     -2464.50024        26.90024  25501751.75906    204539.09106     -1841.23506        36.10006
> 2021 04 28 22 21 12.4299097  0 17                      
G02  21109446.63507    145583.81407     -1314.07907        42.90007                                                                
G05  23667087.31805   -393089.48605      3401.34605        35.00005                                                                
G06  22604572.78106    329374.15006     -2977.56306        39.00006  22602223.00806    250015.57206     -2223.58606        37.10006
G12  20108750.20306    -29913.85506       227.40006        36.70006                                                                
G19  24389406.36706    323170.94106     -2868.64706        38.80006                                                                
G24  23563611.55224        -0.00024     -3194.65024        25.70024  23561262.07906    269543.37806     -2385.29706        38.30006
G25  21559753.49506   -281377.30606      2472.38406        39.10006  21557395.62705   -210116.99605      1846.19305        34.10005
G29  23784997.19005    -18171.33905      2439.18005        32.00005                                                                
R09  22573574.84106    468318.94206     -4305.06006        39.70006
R20  20270623.14124        -0.00024     -2209.50024        26.90024
R21  20486926.99705   -163506.84105      1433.59405        34.40005
E01  25736475.81005    -99472.91705      2218.70105        33.50005  25734557.43806   -187841.36506      1656.89906        36.70006
E13  23348472.09005     67485.44105      -925.34705        32.80005  23346551.32005     76501.04805      -691.01505        32.10005
E15  26605232.98224        -0.00024     -2595.30024        25.50024                                                                
E21  23454009.52815       826.50615      -130.23115        32.60015  23452088.15905      8831.07205       -97.25105        32.00005
E26  23987030.32615     -5995.22715      1676.52215        32.00015  23985117.35006   -143169.17906      1251.97606        37.10006
E27  25504142.05124        -0.00024     -2470.00024        28.60024  25502221.28105    206382.78405     -1844.52105        34.60005
> 2021 04 28 22 21 13.4299097  0 17                      
G02  21109691.93907    146897.55507     -1311.96507        43.60007                                                                
G05  23666452.43105   -396491.17605      3403.34605        34.70005                                                                
G06  22605142.46006    332351.35506     -2975.45206        38.20006  22602788.79006    252238.83606     -2221.96106        36.10006
G12  20108701.41005    -30141.48405       229.39005        32.30005                                                                
G19  24389938.57206    326039.11706     -2866.32906        37.10006                                                                
G24  23564231.29725    354957.73525     -3191.83625        34.20025  23561870.13206    271928.30606     -2383.59306        37.20006
G25  21559276.89806   -283850.23406      2474.81506        37.60006  21556925.62605   -211963.74205      1848.15005        34.30005
G29  23784548.47505    -20611.32105      2442.11905        30.90005                                                                
R09  22574390.35006    472623.68006     -4303.07806        41.10006
R20  20271029.73324    222856.92624     -2209.41224        29.20024
R21  20486665.95105   -164940.96505      1436.11605        34.50005
E01  25736047.48024         0.00024      2220.55024        29.40024  25734135.10406   -189498.72906      1658.80506        37.10006
E13  23348649.04105     68410.43805      -923.26305        34.50005  23346728.27105     77191.67505      -689.38005        32.80005
E15  26605718.71925      1564.14425     -2594.03925        30.20025                                                                
E21  23454029.08805       956.22705      -127.91605        30.90005  23452111.31605      8927.93305       -95.64505        31.00005
E26  23986717.71605     -7672.01805      1678.95005        32.30005  23984797.84506   -144421.49906      1253.74706        37.20006
E27  25504619.39424        -0.00024     -2467.10024        24.80024  25502690.82905    208227.10105     -1843.09605        33.20005
> 2021 04 28 22 21 14.4299097  0 17                      
G02  21109942.47607    148206.72807     -1308.89307        43.40007                                                                
G05  23665801.79105   -399897.49705      3406.76205        34.20005                                                                
G06  22605708.37906    335323.93206     -2972.12406        37.80006  22603354.10906    254458.60606     -2219.27106        36.10006
G12  20108645.85905    -30373.61105       232.52505        30.20005                                                                
G19  24390496.09606    328902.66506     -2863.00506        39.60006                                                                
G24  23564838.88726    358146.62026     -3188.36826        35.60026  23562476.52206    274309.60506     -2380.75606        37.00006
G25  21558807.33306   -286328.16906      2478.47206        38.10006  21556453.66305   -213814.13205      1850.90005        33.90005
G29  23784059.12404    -23056.53504      2445.78504        28.90004                                                                
R09  22575191.30506    476923.80206     -4299.72406        40.50006
R20  20271433.16405    225063.29405     -2205.96005        30.40005
R21  20486412.83705   -166380.03805      1439.44605        34.90005
E01  25735621.685 5   -103916.941 5      2225.359 5        30.300 5  25733712.90606   -191159.93306      1661.73206        37.10006
E13  23348824.33005     69330.59105      -919.49405        34.20005  23346904.45905     77878.88905      -686.71505        33.30005
E15  26606212.38824        -0.00024     -2590.15024        29.00024                                                                
E21  23454050.28424        -0.00024      -125.25024        28.60024  23452134.91005      9021.34405       -92.90405        31.00005
E26  23986397.14824         0.00024      1682.25024        28.40024  23984478.47606   -145677.51806      1256.45806        37.00006
E27  25505083.68324        -0.00024     -2465.65024        26.60024  25503159.91505    210068.14005     -1840.62205        32.90005
> 2021 04 28 22 21 15.4299097  0 17                      
G02  21110190.72107    149520.08807     -1316.91007        43.60007                                                                
G05  23665150.05905   -403299.86705      3399.05905        34.00005                                                                
G06  22606271.10606    338300.52506     -2980.03906        38.30006  22603920.43306    256681.37506     -2225.33006        36.30006
G12  20108608.40205    -30601.44005       224.30405        29.70005                                                                
G19  24391042.33406    331770.02606     -2870.70606        40.30006                                                                
G24  23565450.48026    361339.32626     -3196.14226        35.60026  23563084.51806    276693.75906     -2386.67706        37.40006
G25  21558331.27906   -288802.08906      2470.41906        37.30006  21555983.30505   -215661.49105      1844.85205        34.40005
G29  23783603.15604    -25497.91604      2438.04604        28.40004                                                                
R09  22576002.56006    481228.08006     -4307.74606        40.30006
R20  20271856.48715    227273.85615     -2214.19315        30.00015
R21  20486127.75005   -167814.86805      1431.22805        34.10005
E01  25735198.39415   -106138.10115      2217.29015        31.60015  25733289.91606   -192818.21706      1655.73806        37.40006
E13  23348999.12605     70254.79705      -927.69705        34.40005  23347080.15405     78569.06005      -692.73905        33.60005
E15  26606698.96724        -0.00024     -2598.80024        28.70024                                                                
E21  23454074.58424        -0.00024      -132.75024        28.30024  23452160.10905      9117.92905       -99.20705        31.20005
E26  23986080.58424         0.00024      1674.60024        27.60024  23984158.91406   -146930.48306      1250.40506        37.60006
E27  25505555.57324        -0.00024     -2473.15024        26.80024  25503630.30605    211912.20105     -1846.63105        33.50005
> 2021 04 28 22 21 16.4299096  0 17                      
G02  21110412.52207    150837.14807     -1316.62007        43.70007                                                                
G05  23664484.17505   -406698.87705      3399.65105        32.30005                                                                
G06  22606812.18606    341280.66906     -2979.65006        38.10006  22604458.51606    258906.84006     -2225.05506        36.40006
G12  20108535.50715    -30825.46815       224.46215        31.10015                                                                
G19  24391562.72906    334640.69806     -2870.05406        39.50006                                                                
G24  23566028.73525    364535.41225     -3195.66325        32.90025  23563662.17306    279080.49506     -2386.34006        37.40006
G25  21557832.98006   -291272.32806      2470.68906        37.80006  21555482.30705   -217506.18505      1844.96005        34.60005
G29  23783115.34924         0.00024      2436.55024        28.00024                                                                
R09  22576775.68006    485535.97806     -4307.40406        40.50006
R20  20272231.18315    229488.07815     -2213.67415        29.50015
R21  20485826.71405   -169245.85305      1431.50105        34.30005
E01  25734749.26105   -108354.83005      2217.60205        31.30005  25732837.78406   -194473.92606      1656.07706        37.50006
E13  23349145.38015     71182.56915      -927.33715        32.80015  23347227.00805     79261.92205      -692.50105        33.50005
E15  26607168.69725      9348.11525     -2597.72925        29.80025                                                                
E21  23454073.34025      1343.13525      -132.55825        30.70025  23452155.86705      9217.25005       -98.98505        31.50005
E26  23985734.57825      -893.13225      1674.92225        29.90025  23983811.41006   -148180.75106      1250.63406        37.70006
E27  25505990.22723        -0.00023     -2473.50023        22.20023  25504070.95605    213758.90405     -1846.37105        34.30005
> 2021 04 28 22 21 17.4299096  0 17                      
G02  21110663.39707    152153.47107     -1316.53807        43.40007                                                                
G05  23663830.87605   -410098.92405      3400.02505        32.40005                                                                
G06  22607382.34006    344259.93406     -2979.43506        38.10006  22605025.67206    261131.57006     -2224.86806        36.20006
G12  20108498.28225    -31050.04825       224.36125        30.60025                                                                
G19  24392108.00006    337510.22606     -2869.55306        40.50006                                                                
G24  23566633.66425    367730.60425     -3195.21725        32.40025  23564269.50106    281466.45706     -2386.02306        36.90006
G25  21557368.25006   -293743.41906      2470.87206        37.60006  21555012.18105   -219351.41805      1845.03505        33.50005
G29  23782660.21225    -30374.02325      2438.91525        30.60025                                                                
R09  22577588.06606    489842.95806     -4307.10206        39.30006
R20  20272620.56214    231701.44214     -2213.53814        29.30014
R21  20485559.54805   -170677.59105      1431.38505        33.00005
E01  25734329.79905   -110572.81005      2217.96005        34.30005  25732416.82406   -196130.28306      1656.24506        36.50006
E13  23349318.30905     72109.60905      -927.21405        32.60005  23347403.23405     79954.12005      -692.32905        33.00005
E15  26607660.30524        -0.00024     -2597.30024        28.70024                                                                
E21  23454098.17115      1475.87415      -132.54015        31.30015  23452181.59815      9316.00315       -98.90715        31.30015
E26  23985404.45515     -2568.73715      1674.58415        30.30015  23983492.67906   -149431.67106      1250.73806        37.30006
E27                                                                  25504541.27905    215604.99205     -1846.10505        32.70005
> 2021 04 28 22 21 18.4299096  0 17                      
G02  21110914.26207    153468.24107     -1311.01007        42.40007                                                                
G05  23663188.36024         0.00024      3403.00024        26.80024                                                                
G06  22607952.18406    347237.40706     -2973.64306        40.60006  22605592.51806    263355.01706     -2220.52706        36.00006
G12  20108456.54905    -31275.91505       229.30005        33.30005                                                                
G19  24392637.67206    340377.36506     -2862.05006        38.90006                                                                
G24  23567236.78614    370923.79014     -3188.65814        29.00014  23564876.81906    283851.11106     -2381.93206        37.10006
G25  21556893.91706   -296215.33006      2474.05406        36.00006  21554541.44605   -221197.27805      1847.46805        31.40005
G29  23782184.68015    -32813.90815      2442.40715        29.80015                                                                
R09  22578389.35006    494147.71206     -4300.15406        38.70006
R20  20273062.99524        -0.00024     -2207.25024        27.60024
R21  20485302.56424         0.00024      1433.10024        28.30024
E01  25733908.53006   -112791.95306      2221.25406        36.50006  25731993.15605   -197787.40105      1658.78005        33.50005
E13  23349496.62415     73034.52415      -921.97315        31.40015  23347578.85205     80645.18405      -688.37905        31.50005
E15  26608149.50624        -0.00024     -2591.05024        28.10024                                                                
E21  23454126.29005      1606.69305      -127.38005        31.10005  23452206.71905      9413.67005       -95.19005        30.40005
E26  23985087.21424         0.00024      1678.65024        27.80024  23983172.43906   -150683.55006      1254.00306        37.00006
E27  25506930.26424        -0.00024     -2464.80024        26.70024  25505009.49305    217449.28305     -1840.67205        33.50005
> 2021 04 28 22 21 19.4299096  0 17                      
G02  21111161.67307    154778.08707     -1310.98007        42.10007                                                                
G05  23662516.30726   -416912.88826      3411.92526        37.60026                                                                
G06  22608510.78006    350209.29506     -2972.62106        40.20006  22606158.90806    265574.29106     -2219.76006        37.70006
G12  20108409.56405    -31505.78305       228.12705        35.20005                                                                
G19  24393181.27806    343236.40706     -2858.14506        37.60006                                                                
G24  23567845.74615    374110.78715     -3188.45515        30.10015  23565485.18006    286232.05306     -2381.61206        40.30006
G25  21556427.52206   -298688.33906      2469.43806        35.70006  21554071.15305   -223043.98005      1844.19805        31.00005
G29  23781721.88324         0.00024      2429.25024        25.50024                                                                
R09  22579193.77615    498444.81015     -4296.11515        34.50015
R20  20273454.30625    236121.80125     -2209.97425        29.50025
R21  20485029.23625   -173544.78025      1430.49025        33.60025
E01  25733487.10405   -115011.79505      2216.20305        32.90005  25731572.03006   -199445.10806      1654.79706        36.00006
E13  23349672.38415     73955.35615      -922.20415        31.10015  23347753.41305     81332.80605      -688.56705        29.50005
E15  26608643.94525     17129.09225     -2589.40225        31.20025  26606732.46924        -0.00024     -1933.50024        28.70024
E21  23454147.95815      1732.97115      -128.32515        32.40015  23452232.88305      9508.32005       -95.61805        34.30005
E26  23984765.01925     -5851.64325      1677.09625        30.80025  23982852.94306   -151937.71706      1252.55206        37.40006
E27  25507390.227 5      1564.121 5     -2460.639 5        35.300 5  25505478.75105    219287.55105     -1837.57205        35.10005
> 2021 04 28 22 21 20.4299096  0 16                      
G02  21111411.07707    156092.47007     -1315.34707        42.60007                                                                
G05  23661873.82927   -420324.42227      3413.22027        42.70027                                                                
G06  22609076.46506    353184.80506     -2976.08706        40.30006  22606725.19306    267796.28506     -2222.47006        37.30006
G12  20108364.27205    -31729.83605       222.25405        33.40005                                                                
G19  24393731.07516    346095.01616     -2857.53716        35.70016                                                                
G24  23568451.30424        -0.00024     -3193.95024        27.80024  23566092.83706    288616.20006     -2385.13106        39.80006
G25  21555957.42406   -301150.81206      2458.03106        37.80006  21553601.95505   -224882.93005      1835.55005        31.00005
R09  22579998.39606    502741.36306     -4295.49706        37.50006
R20  20273893.47924        -0.00024     -2215.25024        28.60024
R21  20484768.99315   -174969.09615      1420.99115        30.60015
E01  25733063.77415   -117221.25115      2204.31715        30.60015  25731150.79806   -201094.63106      1646.10506        38.00006
E13  23349846.84105     74881.99705      -927.63105        31.40005  23347931.76605     82024.40305      -692.68705        30.40005
E15  26609137.68124        -0.00024     -2592.35024        28.30024  26607225.00524        -0.00024     -1935.40024        25.90024
E21  23454172.81715      1865.80815      -134.09615        30.70015  23452256.54405      9607.16505      -100.24205        32.70005
E26  23984448.11524         0.00024      1669.75024        23.90024  23982534.84006   -153186.49806      1246.86806        36.90006
E27  25507859.08015      4025.04815     -2459.69815        32.80015  25505949.10206    221125.57106     -1836.73306        37.30006
> 2021 04 28 22 21 21.4299096  0 16                      
G02  21111662.62607    157405.26107     -1312.43107        42.90007                                                                
G05  23661221.50327   -423743.01627      3421.62227        43.20027                                                                
G06  22609643.09606    356157.72806     -2972.00006        38.60006  22607290.92406    270016.27806     -2219.46606        37.40006
G12  20108330.41905    -31953.84805       223.76305        32.60005                                                                
G19  24394277.61925    348947.28325     -2849.33525        35.30025                                                                
G24  23569065.00224        -0.00024     -3188.50024        25.50024  23566699.63906    290999.44106     -2382.83206        38.50006
G25  21555490.97006   -303607.89906      2454.33206        37.50006  21553133.10205   -226717.74505      1832.85605        31.30005
R09  22580802.46206    507031.61106     -4287.67006        38.20006
R20  20274279.33424        -0.00024     -2213.80024        28.10024
R21  20484482.41415   -176389.43815      1417.40715        30.20015
E01  25732646.18615   -119424.46015      2200.37915        31.30015  25730731.71106   -202739.79906      1642.88206        37.50006
E13  23350021.34315     75806.79015      -925.18015        31.40015  23348106.86805     82715.38905      -690.90905        32.30005
E15  26609628.46425     22311.78525     -2587.56225        30.50025  26607718.786 5    236258.855 5     -1932.216 5        31.500 5
E21  23454200.12115      1997.95215      -132.62815        31.90015  23452280.55005      9705.82405       -98.75605        31.90005
E26  23984130.35824         0.00024      1670.85024        25.00024  23982217.08305   -154433.90505      1246.59405        34.60005
E27  25508323.78115      6479.81315     -2451.28115        32.80015  25506415.90206    222958.23406     -1830.48206        37.90006
> 2021 04 28 22 21 22.4299096  0 16                      
G02  21111910.84607    158718.17107     -1310.32607        42.60007                                                                
G05  23660573.34426   -427167.09926      3428.86726        41.00026                                                                
G06  22610209.69606    359129.69406     -2969.20706        38.50006  22607856.32506    272235.65906     -2217.36006        37.10006
G12  20108287.54005    -32176.21505       224.33605        32.10005                                                                
G19  24394809.14326    351794.65426     -2842.69226        38.90026                                                                
G24  23569624.10723        -0.00023     -3190.45023        22.90023  23567307.01106    293382.59906     -2381.51306        39.00006
G25  21555028.98206   -306058.24406      2449.89606        38.10006  21552667.51705   -228547.52505      1829.58905        31.60005
R09  22581599.00306    511317.10906     -4281.20006        38.60006
R20  20274722.72024        -0.00024     -2215.00024        26.80024
R21  20484229.08115   -177803.42915      1413.90915        31.40015
E01  25732225.26905   -121619.76805      2195.17405        32.70005  25730313.79306   -204379.60006      1639.29606        37.30006
E13  23350200.91015     76733.45115      -924.36215        29.90015  23348283.13805     83406.99805      -690.15505        32.10005
E15  26610122.81415     24898.97015     -2583.96815        32.10015  26608210.13805    238190.88505     -1929.68605        31.80005
E21  23454219.30015      2131.45615      -131.63215        31.00015  23452306.62405      9805.51805       -98.32505        31.40005
E27  25508791.74915      8928.47315     -2444.44815        33.20015  25506881.17205    224786.96205     -1825.43105        34.90005
E26                                                                  23981899.29506   -155679.01806      1245.76906        37.30006
> 2021 04 28 22 21 23.4299096  0 16                      
G02  21112160.56907    160024.51307     -1306.57607        42.40007                                                                
G05  23659915.29526   -430602.21326      3436.85026        40.70026                                                                
G06  22610775.70006    362094.35306     -2964.41706        38.60006  22608419.93106    274449.47806     -2213.67706        36.40006
G12  20108243.46705    -32403.90705       226.90005        33.00005                                                                
G19  24395344.26926    354631.39026     -2835.06726        39.70026                                                                
G24  23570262.66124        -0.00024     -3182.50024        26.00024  23567912.88706    295761.12006     -2378.61906        38.10006
G25  21554556.20506   -308509.46206      2448.82006        38.80006  21552201.63505   -230377.96805      1828.79505        31.70005
R09  22582411.43616    515592.04616     -4273.07916        36.00016
R20  20275135.83024        -0.00024     -2212.70024        27.70024
R21  20483956.56615   -179219.06615      1413.75915        29.80015
E01  25731807.05505   -123816.17005      2193.99305        33.50005  25729895.57806   -206019.75906      1638.26706        36.40006
E13  23350378.08405     77653.90705      -920.53405        31.70005  23348458.21305     84094.23505      -687.40005        31.80005
E15  26610613.27005     27478.84305     -2578.35105        33.30005  26608700.29415    240116.95315     -1925.60615        31.80015
E21  23454251.37415      2259.57815      -128.61015        31.60015  23452330.90305      9901.25005       -96.07105        31.60005
E27  25509252.82615     11366.68815     -2435.96715        33.70015  25507345.84606    226607.56606     -1819.22606        36.20006
E26                                                                  23981582.11006   -156926.87606      1246.95706        37.00006
> 2021 04 28 22 21 24.4299096  0 17                      
G02  21112410.49407    161334.74507     -1311.44607        41.70007                                                                
G05  23659260.14606   -434036.66206      3435.48706        41.10006                                                                
G06  22611338.30806    365062.18406     -2968.62506        39.40006  22608985.53606    276665.73006     -2216.88506        37.10006
G12  20108207.38905    -32626.60405       220.83505        31.40005                                                                
G19  24395887.99006    357469.03906     -2836.49306        39.70006                                                                
G24  23570863.34223        -0.00023     -3196.05023        22.80023  23568519.56506    298142.61806     -2382.68506        38.40006
G25  21554095.92106   -310952.21106      2439.36206        38.80006  21551735.35505   -232202.10605      1821.60705        30.20005
G29  23779431.65324         0.00024      2403.75024        26.30024                                                                
R09  22583208.18206    519867.65206     -4275.46006        40.40006
R20  20275520.66124        -0.00024     -2220.10024        28.90024
R21  20483684.55215   -180626.52715      1404.09015        30.50015
E01  25731394.73705   -126003.79705      2184.16105        34.90005  25729479.66306   -207653.33706      1630.92906        37.60006
E13  23350552.76005     78578.34805      -926.08905        32.70005  23348633.48905     84784.68305      -691.53905        31.50005
E15  26611105.72615     30060.72715     -2582.62115        33.20015  26609193.35015    242045.15315     -1928.45315        32.40015
E21  23454275.25515      2391.89915      -134.42215        30.60015  23452356.58305     10000.48705      -100.60105        30.70005
E26  23983181.10123         0.00023      1662.15023        22.30023  23981265.12706   -158170.24906      1241.45506        36.10006
E27  25509718.60115     13804.85415     -2437.94515        33.30015  25507809.52206    228428.28006     -1820.39006        36.70006
> 2021 04 28 22 21 25.4299096  0 17                      
G02  21112661.91906    162645.03306     -1306.96006        39.80006                                                                
G05  23658611.59507   -437475.46007      3443.83607        41.50007                                                                
G06  22611902.41706    368029.18606     -2963.47306        39.80006  22609549.94506    278881.35506     -2213.05406        36.40006
G12  20108151.22705    -32848.02505       224.31505        30.00005                                                                
G19  24396430.51306    360302.47006     -2828.53306        38.60006                                                                
G24  23571505.09724        -0.00024     -3184.15024        24.80024  23569126.54406    300524.26306     -2379.24906        36.50006
G25  21553627.84506   -313390.19206      2439.17906        38.40006  21551271.17604   -234022.65904      1821.43604        28.70004
G29  23778946.48924         0.00024      2406.15024        24.00024                                                                
R09  22584010.62606    524139.91206     -4267.54706        39.80006
R20  20275961.85524        -0.00024     -2217.90024        28.50024
R21  20483434.72415   -182030.26815      1404.83215        31.30015
E01  25730976.72605   -128186.33905      2183.54605        34.90005  25729064.95006   -209283.21406      1630.62306        37.40006
E13  23350728.93805     79503.66805      -922.22505        32.50005  23348809.36705     85475.53905      -688.73905        31.10005
E15  26611591.58905     32641.31305     -2576.94905        34.30005  26609683.41005    243972.18505     -1924.23405        31.80005
E21  23454298.53824        -0.00024      -130.55024        28.40024  23452381.96504     10100.56904       -97.97904        29.20004
E26  23982857.52423         0.00023      1666.80023        21.40023  23980948.14606   -159411.70206      1243.16506        35.60006
E27  25510184.67815     16239.46115     -2429.75315        33.90015  25508272.60105    230246.24005     -1814.32305        35.20005
> 2021 04 28 22 21 26.4299096  0 17                      
G02  21112906.78506    163950.39806     -1306.24806        41.40006                                                                
G05  23657956.18406   -440922.88906      3448.19406        38.70006                                                                
G06  22612464.16306    370990.47106     -2961.90706        39.30006  22610113.49006    281092.71406     -2212.01906        36.40006
G12  20108116.38705    -33073.57605       224.05605        32.40005                                                                
G19  24396967.37706    363127.35106     -2824.13506        37.70006                                                                
G24  23572081.83324        -0.00024     -3184.50024        25.90024  23569732.96006    302901.95806     -2378.10906        37.50006
G25  21553161.90306   -315829.03106      2435.95306        36.90006  21550808.53205   -235843.99605      1819.03305        30.50005
G29  23778490.74023         0.00023      2401.00023        22.00023                                                                
R09  22584800.51416    528403.78416     -4263.05016        37.10016
R20  20276369.20824        -0.00024     -2216.60024        27.50024
R21  20483181.63515   -183434.51015      1402.02115        31.30015
E01  25730562.64805   -130369.70305      2180.28305        32.90005  25728648.47306   -210913.55006      1628.07006        37.80006
E13  23350899.45525        -0.00025      -921.55025        29.50025  23348986.17905     86163.06805      -688.56905        32.90005
E15  26612082.58515     35215.08215     -2574.84815        33.30015  26610174.10605    245894.55705     -1922.80205        32.30005
E21  23454325.45424        -0.00024      -130.65024        29.30024  23452407.08305     10197.35405       -97.84805        30.60005
E26  23982548.37324         0.00024      1664.25024        24.10024  23980631.50006   -160655.56306      1242.52106        36.80006
E27  25510647.19315     18664.82115     -2425.21915        33.60015  25508734.81615    232057.75215     -1810.83615        34.40015
> 2021 04 28 22 21 27.4299096  0 17                      
G02  21113156.02307    165254.89107     -1305.21307        42.80007                                                                
G05  23657292.85415   -444375.71315      3453.85015        34.80015                                                                
G06  22613028.78306    373950.50206     -2960.56306        37.80006  22610676.61106    283303.20306     -2210.80506        36.50006
G12  20108073.02815    -33299.47115       224.73615        33.90015                                                                
G19  24397504.11606    365948.16006     -2820.43406        37.50006                                                                
G24  23572728.29723        -0.00023     -3178.50023        22.30023  23570338.35106    305278.48006     -2376.58106        37.80006
G25  21552700.93306   -318264.45306      2432.92806        36.80006  21550343.96405   -237662.51205      1816.90005        30.20005
G29  23778034.26724         0.00024      2398.60024        24.40024                                                                
R09  22585597.47315    532663.61615     -4258.55015        32.20015
R20  20276787.82924        -0.00024     -2212.10024        27.10024
R21  20482910.73324         0.00024      1400.40024        28.90024
E01  25730143.05005   -132549.12205      2176.99105        31.80005  25728233.67206   -212541.13406      1625.63106        36.20006
E13  23351080.34124        -0.00024      -921.60024        28.90024  23349162.56805     86850.43005      -687.84105        33.00005
E15  26612573.45615     37788.32915     -2572.72715        33.20015  26610662.57905    247815.66905     -1921.47005        32.20005
E21  23454353.74624        -0.00024      -131.05024        28.60024  23452430.57715     10294.18915       -97.45215        31.20015
E27  25511107.18515     21087.38815     -2418.78515        31.10015  25509196.00815    233865.84915     -1807.08115        30.30015
E26                                                                  23980314.73105   -161898.80805      1242.29305        34.40005
> 2021 04 28 22 21 28.4299096  0 17                      
G02  21113402.83307    166563.95707     -1310.51207        42.40007                                                                
G05  23656635.79026   -447827.60326      3451.71326        39.90026                                                                
G06  22613597.57006    376914.90406     -2965.83406        37.90006  22611242.10106    285516.80306     -2214.72306        38.20006
G12  20108030.53825    -33519.69625       218.61725        32.20025                                                                
G19  24398045.92224        -0.00024     -2824.15024        28.30024                                                                
G24  23573301.88124        -0.00024     -3181.70024        25.50024  23570945.21206    307657.68206     -2379.75906        38.80006
G25  21552235.13606   -320691.99906      2424.90706        36.50006  21549881.46605   -239475.40405      1810.96005        31.30005
G29  23777583.75924         0.00024      2389.25024        27.40024                                                                
R09  22586398.90015    536923.34315     -4260.76015        35.10015
R20  20277198.02624        -0.00024     -2221.30024        27.20024
R21  20482655.39124         0.00024      1395.85024        28.30024
E01  25729735.71305   -134720.57105      2168.66405        34.60005  25727820.93806   -214162.64206      1619.44006        37.30006
E13  23351252.50225        -0.00025      -927.40025        29.70025  23349338.62705     87541.32805      -692.16005        34.10005
E15  26613065.79605     40364.92905     -2578.01905        34.50005  26611154.02005    249739.77105     -1925.06205        33.60005
E21  23454365.51925      2919.74425      -136.05425        30.00025  23452456.74005     10394.56605      -101.71305        31.60005
E26  23981914.20423         0.00023      1658.00023        20.10023  23979999.13015   -163137.97715      1237.90915        32.50015
E27  25511564.74915     23510.25915     -2422.68715        33.60015  25509655.67105    235674.77305     -1809.06405        33.70005
> 2021 04 28 22 21 29.4299096  0 17                      
G02  21113649.67007    167873.74107     -1307.99707        42.10007                                                                
G05  23655978.45315   -451281.85415      3458.48715        35.10015                                                                
G06  22614160.98806    379880.09806     -2963.52506        37.80006  22611806.71806    287731.12706     -2213.10206        38.50006
G12  20107990.17425    -33738.71825       220.79525        32.20025                                                                
G19  24398579.96025    371597.34825     -2819.58925        30.30025                                                                
G24  23573904.57124        -0.00024     -3180.55024        27.80024  23571551.20006    310036.29406     -2376.63706        39.80006
G25  21551772.36406   -323116.46306      2425.38806        36.30006  21549420.19305   -241285.83005      1811.16205        30.50005
G29  23777111.99424         0.00024      2387.80024        27.80024                                                                
R09  22587189.86015    541181.73215     -4253.85915        34.10015
R20  20277622.34024        -0.00024     -2222.35024        25.10024
R21  20482415.06524         0.00024      1394.80024        28.30024
E01  25729322.10705   -136888.74605      2169.22505        33.90005  25727408.83106   -215781.79806      1619.83006        38.10006
E13  23351415.69725        -0.00025      -924.70025        29.50025  23349514.71305     88232.92705      -690.25405        35.20005
E15  26613555.76515     42941.58215     -2575.41115        34.00015  26611645.78705    251664.25505     -1923.18505        34.90005
E21  23454401.00215      3055.43715      -133.19515        30.60015  23452482.33005     10495.58405       -99.62005        31.60005
E27  25512028.33606     25931.16606     -2417.34806        36.00006  25510115.96005    237482.11305     -1805.14405        35.10005
E26                                                                  23979682.95706   -164376.67706      1240.14706        35.90006
> 2021 04 28 22 21 30.4299096  0 17                      
G02  21113900.74806    169179.70806     -1302.31706        41.20006                                                                
G05  23655324.75615   -454742.94115      3464.94315        34.30015                                                                
G06  22614722.95005    382841.95305     -2958.71305        35.10005  22612368.98006    289942.86106     -2209.37306        39.40006
G12  20107942.95805    -33960.99605       226.42805        33.20005                                                                
G19  24399118.23924        -0.00024     -2814.00024        28.00024                                                                
G24  23574526.19224        -0.00024     -3166.95024        26.90024  23572155.43305    312410.55105     -2370.77305        34.60005
G25  21551311.73406   -325543.25706      2429.95506        35.50006  21548956.26504   -243098.00204      1814.55804        28.10004
G29  23776679.24424         0.00024      2394.70024        26.10024                                                                
R09  22587991.95615    545431.27015     -4245.51515        32.10015
R20  20278079.97423        -0.00023     -2218.95023        22.00023
R21  20482139.10724         0.00024      1398.40024        27.60024
E01  25728907.64515   -139059.68115      2173.51615        31.90015  25726995.56906   -217402.57006      1623.28606        36.60006
E13  23351599.62124        -0.00024      -920.60024        26.00024  23349690.24305     88921.73105      -686.29805        35.40005
E15  26614044.57724        -0.00024     -2572.60024        27.90024  26612135.79905    253586.15105     -1919.43605        33.60005
E21  23454426.03624        -0.00024      -128.00024        29.20024  23452507.66405     10593.47505       -95.02605        31.00005
E26  23981291.79423         0.00023      1661.30023        20.10023  23979366.52705   -165618.50205      1244.89005        32.90005
E27  25512487.17015     28344.69915     -2409.89115        33.80015  25510576.59205    239284.80905     -1799.45705        31.00005
> 2021 04 28 22 21 31.4299096  0 16                      
G02  21114150.99406    170480.55806     -1304.78106        40.00006                                                                
G05  23654658.23824         0.00024      3459.95024        27.40024                                                                
G06  22615281.38305    385799.27805     -2961.55005        33.10005  22612931.31006    292151.18506     -2211.36206        39.50006
G12  20107900.90705    -34189.16005       224.34705        32.40005                                                                
G19  24399657.48624        -0.00024     -2821.65024        26.70024                                                                
G24  23575118.50224        -0.00024     -3174.10024        28.20024  23572759.43505    314779.22205     -2370.81205        35.00005
G25  21550853.27205   -327975.44605      2428.82505        33.70005  21548493.30504   -244914.36904      1813.79604        28.60004
G29  23776235.77124         0.00024      2398.35024        26.90024                                                                
R09  22588805.51215    549676.06015     -4248.78815        29.50015
R21  20481868.61424         0.00024      1398.30024        26.30024
E01  25728494.75124         0.00024      2173.70024        26.90024  25726580.57605   -219027.47505      1622.34905        35.10005
E13  23351770.12324        -0.00024      -923.55024        23.90024  23349864.34206     89606.59506      -687.60506        36.50006
E15  26614535.55723        -0.00023     -2576.35023        22.10023  26612623.78115    255505.58115     -1921.42515        31.50015
E21  23454445.14224        -0.00024      -128.95024        28.20024  23452531.56705     10686.97805       -96.04405        31.00005
E26  23980966.73924         0.00024      1670.85024        23.90024  23979048.96705   -166865.54905      1244.42505        33.60005
E27  25512946.07215     30752.34915     -2410.81015        32.90015  25511034.29515    241082.52215     -1799.41815        30.50015
> 2021 04 28 22 21 32.4299096  0 17                      
G02  21114398.09306    171789.96706     -1311.31906        40.00006                                                                
G05  23654008.35726   -461664.15126      3459.95726        37.70026                                                                
G06  22615855.25506    388765.71506     -2968.31906        35.90006  22613496.48806    294366.39306     -2216.68906        40.10006
G12  20107856.90715    -34409.50115       218.04215        32.60015                                                                
G19  24400192.38525    380044.43025     -2823.48825        34.40025                                                                
G24  23575709.46224        -0.00024     -3177.25024        26.00024  23573364.18605    317152.82705     -2374.32205        34.00005
G25  21550384.16615   -330399.73115      2422.38415        33.10015  21548030.79504   -246724.62204      1808.98304        26.80004
G29  23775780.75623         0.00023      2389.90023        22.60023                                                                
R09  22589588.93916    553929.16416     -4253.95616        39.00016
R20  20278883.40723        -0.00023     -2220.00023        21.10023
R21  20481605.46624         0.00024      1394.10024        25.20024
E01  25728080.20724         0.00024      2167.40024        26.90024  25726169.03006   -220646.54406      1617.44906        35.50006
E15  26615037.77924        -0.00024     -2579.80024        26.20024  26613114.91005    257430.52505     -1926.49005        32.20005
E21  23454471.89325      3443.65125      -134.97625        29.90025  23452556.21905     10786.48905      -100.72805        30.50005
E26  23980647.82923         0.00023      1660.15023        22.30023  23978732.45515   -168107.28915      1240.67415        30.70015
E27  25513404.82416     33167.29416     -2416.38316        38.00016  25511491.84815    242885.17515     -1804.36815        32.50015
E13                                                                  23350041.28906     90297.78106      -692.48906        36.90006
> 2021 04 28 22 21 33.4299096  0 16                      
G02  21114646.85506    173101.67506     -1311.39806        38.80006                                                                
G05  23653346.35016   -465124.99616      3462.77216        35.50016                                                                
G06  22616417.60106    391734.92806     -2969.42906        35.80006  22614061.23206    296583.71306     -2217.44706        41.30006
G12  20107819.06725    -34627.09725       218.13025        32.50025                                                                
G19  24400726.25015    382867.04015     -2821.76915        31.80015                                                                
G24  23576320.67424        -0.00024     -3175.35024        28.00024  23573968.80206    319526.34706     -2372.37306        38.60006
G25  21549925.71825   -332820.96425      2421.22425        33.40025  21547570.84823         0.00023      1807.50023        23.20023
G29  23775319.31023         0.00023      2399.55023        23.40023                                                                
R09  22590379.72616    558181.05716     -4250.23416        41.40016
R21  20481395.24624         0.00024      1393.75024        25.20024
E01  25727669.42624         0.00024      2164.75024        29.10024  25725756.45005   -222263.33905      1616.72705        33.70005
E13  23352119.68523        -0.00023      -927.65023        20.80023  23350217.20206     90990.62706      -692.65706        37.10006
E15  26615514.084 5      1532.519 5     -2580.668 5        33.500 5  26613604.40606    259357.75206     -1927.15106        36.70006
E21  23454501.80725        -0.00025      -134.40025        29.70025  23452581.93605     10887.31505      -100.28405        31.70005
E26  23980327.58523         0.00023      1662.45023        22.20023  23978416.40915   -169347.09615      1241.89015        35.20015
E27  25513863.44106     35583.52606     -2414.23106        40.30006  25511952.56405    244689.07805     -1802.82805        33.80005
> 2021 04 28 22 21 34.4299096  0 16                      
G02  21114898.12706    174413.06306     -1309.03806        36.90006                                                                
G05  23652682.35514   -468590.88014      3472.29814        29.40014                                                                
G06  22616980.95605    394704.62105     -2967.93705        34.30005  22614626.38606    298801.36406     -2216.32406        41.30006
G12  20107776.84225    -34845.18225       220.51025        32.60025                                                                
G19  24401266.52115    385689.70615     -2820.12415        34.20015                                                                
G24  23576929.89724        -0.00024     -3165.00024        27.60024  23574573.22906    321897.68706     -2368.68206        37.40006
G25  21549464.68225   -335241.99325      2422.99025        32.70025  21547110.412 4   -250340.611 4      1809.098 4        26.700 4
G29  23774882.25824         0.00024      2396.05024        25.70024                                                                
R09  22591179.91805    562430.13505     -4245.06405        31.50005
R21  20481083.50724         0.00024      1392.75024        27.90024
E01  25727253.95925     -3369.71625      2166.74025        30.00025  25725344.58105   -223879.97005      1618.03205        32.60005
E13  23352299.60623        -0.00023      -923.70023        21.50023  23350393.82506     91683.23806      -690.97906        36.60006
E15  26616004.29015      4113.45515     -2579.15515        31.30015  26614096.11106    261285.22106     -1925.95606        36.10006
E21  23454515.94324        -0.00024      -131.60024        28.60024  23452607.16405     10987.36105       -98.16005        31.20005
E26  23980021.84323         0.00023      1665.90023        22.10023  23978099.57305   -170589.29305      1244.31605        35.10005
E27  25514323.36806     37996.59906     -2409.97706        40.30006  25512411.59105    246490.94705     -1799.58105        32.70005
> 2021 04 28 22 21 35.4299096  0 17                      
G02  21115145.94706    175718.89106     -1305.48906        36.10006                                                                
G05  23652031.99814   -472067.88214      3479.90114        29.30014                                                                
G06  22617545.95705    397669.46505     -2964.71005        33.70005  22615190.78807    301015.41307     -2213.97607        41.70007
G12  20107736.56225    -35069.04625       224.45225        34.00025                                                                
G19  24401798.54515    388506.70615     -2815.69515        32.30015                                                                
G24  23577519.18224    425012.67724     -3161.59924        29.20024  23575175.40405    324262.68605     -2363.44305        35.00005
G25  21549006.19225   -337668.31325      2426.72325        31.50025  21546649.52405   -252152.59505      1812.44305        30.30005
G29  23774406.08024         0.00024      2400.05024        25.40024                                                                
R09  22591969.76315    566670.85215     -4238.89015        31.40015
R20  20280049.17323        -0.00023     -2221.15023        20.30023
R21  20480827.37724         0.00024      1399.05024        28.10024
E01  25726842.23615     -5539.94215      2170.73315        31.70015  25724930.76005   -225500.50005      1620.84305        30.40005
E13  23352472.17924        -0.00024      -921.75024        26.80024  23350568.79606     92371.61206      -688.05006        36.70006
E15  26616497.04105      6689.55205     -2575.86805        33.80005  26614586.76406    263208.91406     -1923.62306        36.90006
E21  23454541.91724        -0.00024      -126.50024        29.40024  23452632.23905     11082.74905       -94.82705        31.00005
E26  23979696.46024         0.00024      1671.50024        24.70024  23977783.48514   -171836.74614      1248.32014        29.40014
E27  25514781.64306     40402.07306     -2404.39406        40.60006  25512871.96515    248287.19815     -1795.59615        31.40015
> 2021 04 28 22 21 36.4299096  0 16                      
G02  21115396.37705    177025.56705     -1308.06905        34.60005                                                                
G05  23651369.55915   -475547.01415      3472.64015        32.20015                                                                
G06  22618109.67006    400635.90706     -2968.25506        36.30006  22615755.70007    303230.61307     -2216.68607        41.80007
G12  20107689.59805    -35291.94205       222.14905        33.50005                                                                
G19  24402329.28114    391324.26414     -2820.93914        28.60014                                                                
G24  23578132.06124        -0.00024     -3160.10024        28.20024  23575778.39015    326626.54815     -2363.95315        33.40015
G25  21548536.82015   -340094.40515      2425.38215        29.70015  21546189.44505   -253964.30605      1811.14605        30.20005
G29  23773946.00224         0.00024      2393.65024        25.70024                                                                
R09  22592766.11515    570910.66015     -4239.97115        31.20015
R21  20480573.856 5   -197419.924 5      1399.744 5        30.200 5
E01  25726429.22605     -7709.42205      2169.35405        32.10005  25724517.14914   -227121.14714      1619.93114        28.60014
E13  23352645.56224        -0.00024      -923.85024        25.40024  23350743.67806     93060.52606      -689.93806        35.60006
E15  26616984.30715      9266.68315     -2579.73115        34.00015  26615077.62706    265133.78806     -1926.50006        36.90006
E21  23454570.50124        -0.00024      -128.65024        27.90024  23452653.62804     11178.13804       -96.04504        29.30004
E26  23979375.48624         0.00024      1671.20024        29.40024  23977461.61115   -173085.34215      1248.22515        29.90015
E27  25515240.12906     42807.23306     -2406.71006        40.20006  25513328.05215    250083.18915     -1797.37315        30.40015
> 2021 04 28 22 21 37.4299096  0 17                      
G02  21115649.99405    178334.23605     -1308.40005        34.80005                                                                
G05  23650700.71515   -479016.88815      3470.60015        34.90015                                                                
G06  22618675.07205    403605.24305     -2969.35905        34.50005  22616320.80207    305448.02107     -2217.40307        41.80007
G12  20107647.92005    -35513.78305       222.34205        34.00005                                                                
G19  24402876.39515    394146.00615     -2822.47415        35.30015                                                                
G24  23578743.63024    431339.77424     -3163.83124        28.60024  23576380.96606    328990.30106     -2363.20006        36.80006
G25  21548084.12605   -342520.15805      2427.13705        31.30005  21545728.05805   -255775.70005      1812.33105        30.80005
G29  23773496.30624         0.00024      2400.85024        25.20024                                                                
R09  22593555.16216    575150.28716     -4241.13716        36.70016
R20  20281017.89823        -0.00023     -2218.80023        20.90023
R21  20480307.03324         0.00024      1402.35024        27.50024
E01  25726016.70415     -9879.79115      2171.27715        30.50015  25724105.52704   -228741.31704      1621.46704        28.90004
E13  23352824.23124        -0.00024      -924.40024        28.00024  23350919.64906     93750.73806      -689.79506        35.50006
E15  26617470.26324        -0.00024     -2580.80024        27.00024  26615569.57915    267061.01515     -1927.12815        30.80015
E21  23454596.87524        -0.00024      -128.55024        28.60024  23452678.80305     11274.35905       -95.74405        29.60005
E26  23979049.00524         0.00024      1674.20024        27.00024  23977144.72314   -174333.77714      1249.88214        27.40014
E27  25515697.30507     45214.54907     -2407.36807        43.40007  25513787.62705    251880.86905     -1797.73605        30.20005
> 2021 04 28 22 21 38.4299096  0 16                      
G02  21115895.45505    179644.86305     -1312.58605        34.60005                                                                
G05  23650041.40225   -482485.89425      3466.67125        34.50025                                                                
G06  22619233.51505    406577.08605     -2974.29705        31.10005  22616886.44006    307667.20106     -2221.20406        41.40006
G12  20107608.87705    -35734.31005       218.65705        35.30005                                                                
G19  24403408.75626    396971.21226     -2828.22026        37.30026                                                                
G24  23579328.75514    434505.23014     -3167.02014        29.40014  23576983.47906    331354.33506     -2365.32706        39.10006
G25  21547618.47915   -344946.49915      2425.43715        30.30015  21545267.20705   -257587.62905      1810.87605        31.00005
G29  23773023.46324         0.00024      2398.25024        25.10024                                                                
R09  22594361.83406    579393.98606     -4245.99406        35.50006
R21  20480028.456 5   -200220.882 5      1401.136 5        30.100 5
E01  25725602.02124         0.00024      2169.05024        29.30024  25723691.74414   -230362.19914      1619.88414        28.80014
E13  23353006.43525        -0.00025      -927.70025        29.70025  23351095.85805     94442.00105      -692.91005        34.50005
E15  26617971.14724        -0.00024     -2584.80024        28.10024  26616058.77105    268989.84005     -1930.94605        33.30005
E21  23454623.18724        -0.00024      -131.20024        29.30024  23452703.91605     11371.40205       -98.54505        30.20005
E26  23978737.750 5      -821.533 5      1670.628 5        32.200 5  23976826.27315   -175582.45015      1247.33815        33.40015
E27  25516156.81707     47624.60107     -2413.00407        43.80007  25514245.94005    253680.58005     -1801.92805        31.10005
> 2021 04 28 22 21 39.4299096  0 16                      
G02  21116146.94505    180954.66805     -1310.14605        34.30005                                                                
G05  23649375.82725   -485954.97825      3468.71125        34.60025                                                                
G06  22619809.08205    409548.95205     -2972.13205        32.50005  22617452.11306    309886.45706     -2219.37206        40.90006
G12  20107571.06806    -35956.22206       221.89106        35.90006                                                                
G19  24403945.65015    399797.44115     -2826.91315        33.30015                                                                
G24  23579939.09815    437668.51615     -3162.60115        34.30015  23577586.32606    333716.67306     -2361.70506        36.00006
G25  21547147.47015   -347376.03215      2430.75615        31.20015  21544805.49105   -259401.81805      1815.11305        33.50005
G29  23772574.33925    -37000.13025      2404.13725        32.80025                                                                
R09  22595154.15006    583637.24106     -4243.57606        35.90006
R21  20479791.88515   -201625.22615      1405.22815        33.90015
E01  25725190.37125    -14224.74625      2175.67925        30.00025  25723277.69514   -231986.04914      1625.11714        29.40014
E13  23353178.181 5      2422.063 5      -924.276 5        30.200 5  23351271.80105     95132.44505      -690.33005        34.40005
E15  26618459.474 5      4222.096 5     -2582.975 5        30.600 5  26616549.79605    270918.75005     -1929.24205        33.70005
E21  23454644.737 5      4355.559 5      -128.123 5        30.700 5  23452728.76305     11467.19405       -95.51305        30.60005
E26  23978420.83405     -2496.76405      1675.90605        33.00005  23976507.85905   -176833.15605      1251.45605        33.30005
E27  25516615.46407     50035.01907     -2410.71207        43.30007  25514704.28705    255480.56005     -1800.34705        30.50005
> 2021 04 28 22 21 40.4299096  0 16                      
G02  21116391.35705    182270.76605     -1320.14305        34.10005                                                                
G05  23648731.35516   -489417.29116      3457.45616        36.40016                                                                
G06  22620372.77205    412527.42005     -2982.63805        34.60005  22618019.10206    312110.61606     -2227.32406        40.60006
G12  20107525.88005    -36172.34105       212.31305        35.20005                                                                
G19  24404479.06115    402632.02915     -2841.94715        29.60015                                                                
G24  23580537.86426    440836.60926     -3171.76826        38.50026  23578187.49105    336082.34205     -2368.47205        35.30005
G25  21546698.46225   -349801.84525      2423.05025        31.80025  21544342.99205   -261213.30705      1809.31805        34.40005
G29  23772116.93715    -39399.76715      2397.25415        31.30015                                                                
R09  22595951.07915    587887.32815     -4254.43015        31.70015
R21  20479522.45205   -203025.50305      1397.17105        35.20005
E01  25724774.94024         0.00024      2167.50024        29.00024  25722864.96205   -233607.04905      1618.86805        30.00005
E13  23353353.94005      3352.52205      -934.26705        30.50005  23351447.86005     95827.22705      -697.67005        35.30005
E15  26618952.11415      6811.34315     -2594.01415        33.20015  26617043.63505    272852.63605     -1937.19605        34.10005
E21  23454664.30415      4488.86015      -137.67315        29.90015  23452754.62705     11567.14705      -102.87805        30.60005
E26  23978101.03705     -4167.44805      1667.20105        35.10005  23976189.56005   -178080.67705      1244.96405        32.40005
E27  25517075.42707     52452.54607     -2422.34507        42.60007  25515164.25004    257285.93804     -1809.09204        29.40004
> 2021 04 28 22 21 41.4299096  0 16                      
G02  21116643.60315    183590.01315     -1317.19315        33.70015                                                                
G05  23648065.33626   -492873.08426      3456.42326        37.20026                                                                
G06  22620936.20305    415510.26305     -2980.46005        35.20005  22618586.42906    314338.03506     -2225.64506        39.80006
G12  20107489.72605    -36384.86705       215.28105        35.20005                                                                
G24  23581142.06625    444008.64825     -3169.88925        35.00025  23578790.79415    338451.13515     -2367.05315        30.50015
G25  21546240.49925   -352226.67825      2429.24425        32.70025  21543881.43205   -263024.04205      1814.05305        33.60005
G29  23771665.56915    -41799.34215      2403.87915        31.60015                                                                
R09  22596742.35215    592143.57015     -4256.00615        33.90015
R20                        -0.00023     -2226.90023        19.50023
R21  20479259.05515   -204424.02615      1402.71215        33.80015
E01  25724368.24124         0.00024      2175.40024        28.60024  25722452.56804   -235227.71004      1624.37804        29.30004
E13  23353530.63815      4286.02615      -931.22315        31.40015  23351626.05705     96524.65605      -695.41305        34.80005
E15  26619446.59206      9405.89906     -2591.79306        35.50006  26617538.41305    274789.73205     -1935.23005        34.10005
E21  23454700.70015      4626.28915      -134.50315        30.10015  23452780.52905     11669.68505      -100.48405        30.20005
E26  23977781.57806     -5835.44506      1671.08906        35.80006  23975871.90005   -179326.40005      1247.96105        31.60005
E27  25517535.72907     54876.62507     -2423.50407        41.90007  25515624.25214    259096.13114     -1809.68314        28.70014
> 2021 04 28 22 21 42.4299096  0 16                      
G02  21116886.51005    184904.84305     -1313.32605        33.10005                                                                
G05  23647409.76506   -496330.29006      3457.83906        39.90006                                                                
G06  22621506.48306    418487.90106     -2976.12506        37.20006  22619152.81306    316561.63206     -2222.37806        40.20006
G12  20107446.63106    -36603.39206       220.31206        35.70006                                                                
G19  24405566.60425        -0.00025     -2834.80025        32.90025                                                                
G24  23581745.92306    447175.49706     -3165.65706        38.60006  23579392.25305    340815.83505     -2363.74005        33.70005
G25  21545771.99905   -354661.04505      2437.28805        34.80005  21543419.22805   -264841.86705      1820.11605        35.20005
G29  23771199.76715    -44208.00715      2412.87615        30.10015                                                                
R09  22597531.78105    596398.64205     -4254.25505        33.00005
R21  20479000.40905   -205831.18905      1410.04505        32.60005
E01  25723944.41024         0.00024      2182.70024        29.30024  25722038.33015   -236855.85815      1630.45415        31.50015
E13  23353715.98515      5214.53215      -926.14415        32.20015  23351803.00905     97217.64605      -691.65305        34.70005
E15  26619941.62406     11994.71406     -2587.29406        38.50006  26618030.44705    276722.93805     -1931.97405        34.50005
E21  23454718.46305      4758.25305      -129.66505        31.90005  23452806.08605     11767.83305       -96.85105        31.40005
E26  23977465.67206     -7510.24006      1677.05806        37.40006  23975553.59605   -180577.13205      1252.42205        31.90005
E27  25517997.48407     57298.95507     -2421.92207        42.60007  25516084.20904    260904.91504     -1808.71204        25.40004
> 2021 04 28 22 21 43.4299096  0 16                      
G02  21117142.30305    186218.80705     -1316.44005        32.40005                                                                
G05  23646750.89206   -499786.60506      3453.39006        39.60006                                                                
G06  22622072.56206    421464.54406     -2979.07306        37.50006  22619719.19106    318784.44506     -2224.56706        40.00006
G12  20107401.43205    -36823.13405       217.37805        34.20005                                                                
G19  24406107.80025    411136.04125     -2839.74225        34.70025                                                                
G24  23582345.27905    450341.64305     -3168.37605        35.20005  23579994.00604    343180.17804     -2365.95204        28.30004
G25  21545312.18706   -357099.06106      2436.41206        35.60006  21542955.21905   -266662.43905      1819.47005        34.70005
G29  23770749.24915    -46623.27415      2413.51415        30.30015                                                                
R09  22598344.28815    600654.06215     -4258.86215        31.30015
R21  20478722.87215   -207241.29615      1408.08415        33.10015
E01  25723531.96624         0.00024      2183.05024        27.50024  25721621.38905   -238487.06105      1630.05805        32.30005
E13  23353891.73415      6140.46915      -928.64415        32.00015  23351979.65705     97909.52305      -693.51905        35.30005
E15  26620434.55315     14581.90315     -2588.07915        31.80015  26618521.57715    278655.57815     -1935.44915        29.90015
E21  23454746.71305      4888.32705      -132.43905        32.80005  23452831.63905     11864.99405       -98.78705        30.50005
E26  23977143.76506     -9187.18006      1674.92606        36.60006  23975234.68705   -181829.36205      1250.76605        33.10005
E27  25518458.93506     59722.51606     -2426.44106        41.20006  25516546.25914    262714.71314     -1811.91814        26.80014
> 2021 04 28 22 21 44.4299096  0 17                      
G02  21117404.32614    187540.00614     -1324.55314        29.20014                                                                
G05  23646092.85105   -503235.19305      3444.69505        35.20005                                                                
G06  22622640.07306    424447.72006     -2986.29106        37.70006  22620286.70206    321012.17906     -2230.16006        40.60006
G12  20107359.16515    -37036.83115       209.94815        32.40015                                                                
G19  24406644.43215    413979.74815     -2847.41615        32.20015                                                                
G24  23582955.96006    453514.25806     -3175.94006        38.90006  23580599.89105    345549.22305     -2371.65405        32.90005
G25  21544849.91105   -359531.79105      2430.05805        33.20005  21542492.04306   -268479.15006      1814.67706        35.90006
G29  23770291.47024         0.00024      2408.30024        28.00024                                                                
R09  22599120.15524        -0.00024     -4272.55024        28.80024
R20                        -0.00023     -2224.25023        18.10023
R21  20478472.24905   -208645.63705      1401.32705        33.60005
E01  25723119.75525     -1143.08025      2176.76325        33.00025  25721207.07905   -240114.56305      1625.53005        33.20005
E13  23354068.91505      7073.95905      -936.15905        33.70005  23352156.83906     98606.20006      -699.08906        35.70006
E15  26620932.51215     17180.72415     -2592.45415        32.70015  26619016.53915    280593.55215     -1939.13315        33.50015
E21  23454774.89805      5025.05005      -140.01505        33.60005  23452856.52605     11967.03305      -104.54605        32.80005
E26  23976827.78806    -10857.88206      1667.63006        35.90006  23974917.51006   -183076.97306      1245.26406        36.00006
E27  25518921.81807     62153.91707     -2435.17707        42.00007  25517008.54304    264530.40304     -1818.50104        27.20004
> 2021 04 28 22 21 45.4299096  0 17                      
G02  21117650.07815    188864.23415     -1322.26615        30.30015                                                                
G05  23645438.92615   -506680.21015      3446.11615        30.00015                                                                
G06  22623208.10206    427434.39906     -2984.25306        39.40006  22620854.43106    323242.48906     -2228.57006        38.00006
G12  20107328.20925    -37246.50925       212.10925        34.60025                                                                
G19  24407189.67725    416827.78225     -2846.00525        35.40025                                                                
G24  23583553.96806    456690.54706     -3173.82306        36.30006  23581203.59515    347922.21915     -2371.11115        32.30015
G25  21544379.15905   -361962.22305      2433.42905        34.80005  21542029.38605   -270294.03705      1816.94805        35.40005
G29  23769824.91525    -51439.57625      2409.99425        29.90025                                                                
R09  22599953.20124        -0.00024     -4271.25024        27.60024
R20  20284271.71423        -0.00023     -2230.65023        21.80023
R21  20478209.25305   -210047.02305      1404.32205        34.10005
E01  25722705.96405     -3319.71605      2180.27105        33.60005  25720793.88805   -241740.48005      1628.19205        33.70005
E13  23354246.01515      8009.81615      -934.03715        32.00015  23352335.13705     99305.35705      -697.34305        35.10005
E15  26621421.09605     19778.89905     -2595.22205        33.80005  26619509.62006    282533.17106     -1937.70506        35.90006
E21  23454802.10105      5165.10305      -137.56005        32.60005  23452883.13005     12071.70305      -102.85705        30.60005
E26  23976512.02906    -12525.48806      1669.98506        36.10006  23974600.25205   -184322.18705      1247.15505        35.30005
E27  25519385.22006     64589.94706     -2434.23206        41.10006  25517477.64104    266349.42204     -1817.85104        27.30004
> 2021 04 28 22 21 46.4299096  0 17                      
G02  21117905.71724        -0.00024     -1317.00024        27.50024                                                                
G05  23644783.19616   -510128.65416      3446.47316        36.30016                                                                
G06  22623783.31906    430414.52406     -2980.34506        39.60006  22621421.85406    325467.92506     -2225.81406        37.80006
G12  20107281.05826    -37462.79026       216.00526        35.60026                                                                
G19  24407735.21515    419670.08715     -2843.69615        33.70015                                                                
G24  23584158.56515    459860.37115     -3170.81315        35.40015  23581809.09205    350289.22805     -2367.89105        32.60005
G25  21543928.78705   -364400.89005      2440.30205        32.80005  21541564.92406   -272115.13506      1822.07506        35.70006
G29  23769368.24724         0.00024      2419.95024        26.40024                                                                
R09  22600697.20224        -0.00024     -4270.45024        27.50024
R20  20284695.23623        -0.00023     -2223.35023        22.00023
R21  20477938.75705   -211456.19405      1410.08905        35.10005
E01  25722288.86905     -5505.39605      2187.35305        34.60005  25720377.09205   -243372.75105      1633.53305        33.60005
E13  23354426.40605      8939.79005      -929.80705        34.50005  23352512.23106     99999.45406      -694.33606        35.50006
E15  26621910.27415     22369.21015     -2590.99315        33.10015  26620003.89306    284467.82906     -1934.94006        37.60006
E21  23454826.60005      5298.68805      -134.09005        32.40005  23452908.82805     12171.36305       -99.99205        31.10005
E26  23976193.26505    -14200.06505      1674.62305        35.10005  23974282.08905   -185572.73505      1250.32105        35.00005
E27  25519848.01606     67020.94306     -2433.35906        40.70006  25517937.13814    268164.62614     -1817.17314        27.60014
> 2021 04 28 22 21 47.4299096  0 16                      
G02  21118138.90124    191501.28924     -1318.52524        28.50024                                                                
G05  23644127.49626   -513572.84926      3443.33326        36.40026                                                                
G06  22624345.07606    433393.64806     -2976.94806        38.30006  22621989.30706    327692.64406     -2223.06706        39.10006
G12  20107245.02826    -37680.09626       219.56626        35.60026                                                                
G19  24408279.88415    422514.56615     -2843.83715        33.90015                                                                
G24  23584766.79015    463030.56415     -3168.23415        31.40015  23582412.82015    352657.40815     -2368.24015        31.40015
G25  21543451.16405   -366845.44505      2449.19705        31.70005  21541098.69206   -273940.53406      1828.88906        36.40006
G29  23768908.31224    -56277.58724      2427.20024        28.40024                                                                
R09  22601530.87025    617722.54525     -4269.65925        30.40025
R21  20477679.38215   -212869.11715      1416.13615        32.30015
E01  25721875.40105     -7697.74105      2197.29305        34.80005  25719960.02705   -245009.91405      1640.97105        33.60005
E13  23354601.43005      9867.93705      -925.81505        34.90005  23352688.75406    100692.59606      -691.33106        35.80006
E15  26622404.27705     24959.41205     -2587.33105        33.50005  26620496.39806    286401.64206     -1932.21006        39.40006
E21  23454850.82905      5431.51905      -130.70705        33.90005  23452935.15505     12270.56405       -97.58805        33.00005
E26  23975870.93425         0.00025      1678.90025        29.60025  23973962.45605   -186824.28405      1253.71705        33.50005
E27  25520312.34007     69456.73207     -2436.47307        42.80007  25518403.56114    269983.46114     -1818.99314        25.90014
> 2021 04 28 22 21 48.4299096  0 16                      
G02  21118412.01524        -0.00024     -1315.85024        27.70024                                                                
G05  23643474.85006   -517012.54606      3436.96606        38.30006                                                                
G06  22624909.28806    436372.38006     -2979.67706        37.20006  22622556.81706    329917.06706     -2225.07806        39.30006
G12  20107197.36405    -37897.59005       216.86205        34.40005                                                                
G19  24408815.61605    425361.01305     -2848.27505        34.30005                                                                
G24  23585368.77605    466202.47605     -3173.67405        35.40005  23583015.70515    355027.07315     -2369.94415        31.20015
G25  21542986.48805   -369294.84705      2449.71205        33.40005  21540633.41706   -275769.63606      1829.27206        36.00006
G29  23768439.43924         0.00024      2434.50024        24.90024                                                                
R09  22602335.51615    621997.32115     -4275.91615        31.60015
R21  20477411.97015   -214284.35815      1415.49915        32.70015
E01  25721454.49505     -9895.65705      2198.45005        33.60005  25719541.51905   -246651.16405      1641.61805        33.70005
E13  23354780.40905     10795.26705      -928.10605        34.20005  23352866.53406    101385.05406      -693.05306        36.30006
E15  26622898.93815     27548.16015     -2590.13715        33.60015  26620990.15906    288335.07306     -1934.11706        39.20006
E21  23454877.21305      5563.83905      -133.30505        34.30005  23452959.74105     12369.41405       -99.70005        33.90005
E26  23975552.25825    -17550.48625      1676.67025        30.70025  23973642.87915   -188078.00215      1252.41215        30.90015
E27  25520774.62207     71897.02007     -2442.70307        43.00007  25518866.14414    271804.95614     -1823.95214        26.40014
